State,City,Latitude,Longitude,Elevation,Estimated Population
,Abhaipuriāgāon,26.72,94.42,830,29262
,Akarpati,19.82,72.67,0,41794
,Akogaon,26.57,93.92,298,28911
,Alikakh,26.11,91.27,206,61577
,Alorna,15.70,73.92,22,19303
,Amba,22.33,74.12,830,24060
,Ambeachi-Gavol,15.63,74.18,1161,9349
,Amguri,26.62,90.23,275,25955
,Amlipadar,19.93,82.43,1000,10710
,Amranga,26.04,91.53,190,53997
,Amrikhoa,26.35,91.25,82,62919
,Angem,25.06,94.09,3349,572
,Asukhomi,26.08,94.53,5029,12056
,Asukukhwami,26.08,94.53,5029,12056
,Bachāgāon,26.59,93.45,285,19976
,Bagarigāon,25.97,92.61,1036,31090
,Baghadahar,24.61,92.33,49,67977
,Bahadurpur,24.76,92.37,36,86079
,Bajraha,26.61,86.15,193,116295
,Baktuni,24.68,75.32,1669,13677
,Balikuchi,26.15,92.48,830,68498
,Bandapara,25.95,91.11,390,25727
,Bandar,22.72,70.28,39,5691
,Bandavado,15.08,74.23,357,7474
,Bankatwa,27.73,82.75,882,27608
,Bapung,25.41,92.31,4225,13772
,Bara Bazari,24.44,92.32,91,45647
,Bara Bongiedisa,25.37,93.20,1804,3725
,Baralimarigāon,26.35,92.16,101,58261
,Barigaon Dighalipāra,26.64,92.35,223,91567
,Barlum,25.87,93.48,830,6258
,Bartala,26.27,91.32,111,62768
,Barāigaon,26.61,91.58,164,78689
,Bathegaon,26.46,93.73,830,6781
,Bavanapadu,18.57,84.35,3,20072
,Be,27.58,88.45,6709,665
,Bela,26.78,85.73,232,98325
,Bela Muchhpakauni,26.78,85.73,232,98325
,Belphabari,24.13,91.69,154,45701
,Belsiri,26.79,92.53,830,35441
,Benghari,26.74,91.97,262,83669
,Berābāk,24.74,93.12,108,22459
,Betagithim,25.26,90.49,357,7214
,Betanigāon,27.28,95.03,344,41307
,Betauna,26.61,86.16,190,115317
,Bethia,19.85,80.63,944,12076
,Bethia Chhote,19.85,80.63,944,12076
,Betim,15.51,73.83,3,118783
,Bhadra,27.04,94.83,321,88583
,Bhaisolaton,27.45,83.92,278,29461
,Bhaisālotan,27.45,83.92,278,29461
,Bharbharia,24.53,74.87,1669,37628
,Bhariad,22.28,72.17,19,9685
,Bhebelingāon,27.54,94.64,311,26118
,Bhikhnā Thorī,27.34,84.62,830,37307
,Bhikna Thoree,27.34,84.62,830,37307
,Bhimpur,21.08,72.73,0,96736
,Bhojpur,24.14,76.51,1669,10908
,Bhurtuk,27.35,88.61,5380,60502
,Bi Ingli,26.47,93.43,1669,2980
,Biale,23.24,93.13,3576,3964
,Bihār Khun,25.95,93.20,830,11654
,Bijni,26.56,91.07,141,72063
,Binnakandi,24.78,93.02,98,25752
,Birpur,26.13,77.14,830,11644
,Birpāra,26.02,91.26,232,50318
,Biyyaputippa,16.32,81.70,3,24267
,Boaroami,25.58,93.86,4612,4548
,Bogaigaon,27.23,94.80,314,24956
,Bolkhera,23.75,75.72,1669,19097
,Bolkhera Ghat,23.75,75.72,1669,19097
,Boma,15.30,74.27,1669,7359
,Borboha,26.02,92.93,167,35976
,Bordi,20.12,72.74,19,27190
,Boriagaon,26.70,91.28,187,21494
,Brajamahanbari,24.03,91.50,177,29198
,Bukpi,24.21,93.24,3349,2579
,Bura Timung,26.17,93.66,1742,3111
,Burabe,25.71,93.33,830,6258
,Burhi Khow,27.29,94.93,314,25181
,Burla,20.29,73.17,830,23592
,Calangute,15.54,73.76,42,78610
,Calicaxigao,20.38,72.87,36,32797
,Cancarvornem,15.71,73.88,29,26795
,Candolim,15.52,73.77,45,65825
,Canjam,19.39,85.05,3,71708
,Cansarvorném,15.71,73.88,29,26795
,Caranzalem,15.45,73.80,0,57381
,Caranzol,15.36,74.29,830,5707
,Caveloesim,15.18,73.95,16,91787
,Cavelossim,15.18,73.95,16,91787
,Chahong Khuno,24.88,94.64,2769,92
,Chaikambao,25.21,92.98,2014,3925
,Chak Allah Bakhsh,31.68,74.54,830,109994
,Chakalia,27.14,94.82,318,24839
,Chakialgaon,27.16,94.73,308,21298
,Chammu,25.06,94.65,5029,2219
,Chandel,15.73,73.90,36,23699
,Chandpur,22.37,74.23,830,25255
,Changmun,24.57,93.25,1889,3538
,Changrabandha,26.42,88.92,223,63873
,Chaorokiagaon,27.10,94.44,295,9982
,Chare,26.29,94.62,3349,15880
,Chebri,24.02,91.63,72,37510
,Chebti,24.02,91.63,72,37510
,Chenggālgiri,25.74,90.29,1108,8977
,Chepzi,32.57,78.61,15948,0
,Chesa,27.01,93.71,321,15160
,Cheungtong,27.61,88.64,5869,25
,Chhatibargaon,26.54,90.52,216,20634
,Chhuba,27.72,88.75,9599,0
,Chhubakha,27.83,88.81,14422,0
,Chibongbonggiri,25.68,90.20,1141,17317
,Chingjui,25.40,94.42,5869,5582
,Chinglong,26.63,94.93,1669,9947
,Chingmei,26.24,94.93,5039,6773
,Chitākhera,24.32,74.82,1669,27582
,Chongphotgiri,25.30,90.20,351,8344
,Chongtong,27.61,88.64,5869,25
,Chubha,27.72,88.75,9599,0
,Chuchu Yimbang,26.34,94.56,4189,41093
,Chumikteng,27.37,88.71,10252,35819
,Chumurti,32.42,79.25,16272,0
,Chungtong,27.61,88.64,5869,25
,Chuntang,27.61,88.64,5869,25
,Chunthang,27.61,88.64,5869,25
,Churabudigiri,25.48,90.10,177,14621
,Chutmang Agimpal,25.30,90.77,1669,3725
,Chāmpua,22.07,85.66,1122,39870
,Chāndābila,22.09,87.02,219,29744
,Codal,15.07,74.19,830,13939
,Cogna,21.69,72.28,39,16931
,Colangute,15.54,73.76,42,78610
,Collam,15.34,74.24,288,7534
,Collem,15.34,74.24,288,7534
,Colém,15.34,74.24,288,7534
,Costi,15.25,74.17,223,16894
,Cotigao,15.00,74.20,380,15335
,Cumbari,15.17,74.27,830,6490
,Dabaka,26.12,92.87,203,67413
,Dabel,20.41,72.88,45,57946
,Dabhel,20.41,72.88,45,57946
,Dagiapara,26.48,91.85,111,44214
,Dahikhed,20.24,73.12,830,15336
,Dalgrām,24.57,92.41,49,40521
,Damali,25.91,91.33,928,54341
,Damka,21.20,72.66,29,1116542
,Damlawari,21.02,72.74,52,27491
,Daparijo,27.99,94.23,830,4368
,Daparizo,27.99,94.23,830,4368
,Daporijo,27.99,94.23,830,4368
,Daria Ganj,28.65,77.25,830,2435455
,Daryā Ganj,28.65,77.25,830,2435455
,Deka Chuk,26.72,92.90,278,30702
,Dekāpāra,26.41,91.35,141,73607
,Delwara,20.98,72.84,29,46435
,Demchhog,32.70,79.45,14268,0
,Demchok,32.70,79.45,14268,0
,Dentam,27.25,88.13,5869,12390
,Deohati,22.40,74.10,830,26858
,Deparijo,27.99,94.23,830,4368
,Deparizo,27.99,94.23,830,4368
,Dhalpāl,26.40,89.65,331,76306
,Dhanoya Kalān,31.64,74.57,830,227712
,Dhanoya Khurd,31.63,74.57,830,249354
,Dhansiri,25.82,93.62,830,7271
,Dharamgarh,19.87,82.78,830,28702
,Dharaoda,24.59,77.10,1669,17580
,Dhariwal,31.67,74.54,830,194357
,Dharnaoda,24.59,77.10,1669,17580
,Dharāsma,20.68,72.92,26,47627
,Dhatakharia,26.66,94.14,413,70085
,Dhobe,19.33,80.93,1866,3434
,Dhodhar,25.94,76.86,830,10219
,Dholera,22.25,72.20,19,9922
,Dhuvaran,22.24,72.76,59,58387
,Dhuwaran,22.24,72.76,59,58387
,Dhārāsana,20.68,72.92,26,47627
,Dickchou,27.40,88.50,3349,12685
,Diemuchuoke,32.70,79.45,14268,0
,Diengsaw,25.24,91.89,2785,15414
,Dijugaon,26.52,93.38,1669,6892
,Dikchu,27.40,88.50,3349,12685
,Dipling,27.10,95.04,321,42099
,Doiangmukh,25.80,92.94,269,7606
,Dokung,28.04,88.60,15948,6
,Dolara,20.08,73.04,830,39042
,Dolma Sampa,27.88,88.38,17627,0
,Dolora,20.08,73.04,830,39042
,Domgaon,27.07,94.56,305,24592
,Dona Paula,15.45,73.80,0,57381
,Dongthung,28.04,88.60,15948,6
,Donkung,28.04,88.60,15948,6
,Donna Paulaho,15.45,73.80,0,57381
,Dosatan,26.32,91.91,137,26911
,Dualāsāl,26.27,91.23,91,65092
,Dubbin,27.44,92.51,5029,745
,Dubia Barigaon,26.91,93.71,219,36027
,Dudhpur,24.10,92.01,164,26808
,Duliāgāon,26.89,94.55,830,30169
,Dumanata,19.50,81.13,2509,2980
,Durgapur,26.30,91.08,101,67879
,Dzongri,27.47,88.15,10908,7897
,Dzulake,25.62,93.96,5951,4168
,Dzānak,27.90,88.27,21827,0
,Fambong,27.14,88.13,5869,18860
,Fatehgarh,24.80,76.96,1145,11969
,Fatehpur Sikri,27.09,77.66,830,84177
,Fatehpur-Sikrī,27.09,77.66,830,84177
,Gagnikhat,26.54,91.51,141,79241
,Gahribāns,27.05,88.03,9228,28892
,Gai,27.46,93.58,3556,624
,Gandhāpukhuri,26.64,92.18,291,71113
,Gandopar,25.62,90.05,301,47346
,Gangahur,23.87,76.00,1669,20391
,Gangapur,23.87,76.00,1669,20391
,Gangni,23.81,88.75,42,97775
,Ganju Basti,26.91,93.42,265,25328
,Ganjām,19.39,85.05,3,71708
,Garakhet,27.43,88.07,14360,7417
,Garbada,22.68,74.31,1135,57812
,Garbyang,30.12,80.86,10134,4365
,Garbāra,22.68,74.31,1135,57812
,Garehagā Chuk,27.19,94.16,278,51083
,Gayangaon,26.99,94.31,265,22201
,Gayzing,27.28,88.26,3349,18601
,Geling,29.15,94.98,4445,149
,Gellng,29.15,94.98,4445,149
,Gengtung,27.32,93.19,4189,2685
,Geredonga,25.91,92.93,200,32310
,Geyzing,27.28,88.26,3349,18601
,Gezing,27.28,88.26,3349,18601
,Ghahigaon,26.83,93.52,249,32481
,Ghaluad,20.08,72.73,9,25339
,Ghalvad,20.08,72.73,9,25339
,Ghogha,21.69,72.28,39,16931
,Gholvad,20.08,72.73,9,25339
,Ghorāmāra,26.59,91.49,170,94539
,Gingba,27.98,93.87,2831,894
,Girdi,27.40,83.38,285,70246
,Gogha,21.69,72.28,39,16931
,Gopikot,25.08,93.16,2936,4023
,Goreswar,26.53,91.73,160,115417
,Gorāmāri,26.35,92.29,190,49981
,Goteswar,26.53,91.73,160,115417
,Gua,22.21,85.39,1220,23841
,Guchi,27.91,93.90,2739,967
,Gulur,20.08,72.73,9,25339
,Gurla,24.65,75.57,1669,10201
,Gyalshing,27.28,88.26,3349,18601
,Gyalzing,27.28,88.26,3349,18601
,Habe,26.43,93.08,830,29853
,Halbari,25.96,91.49,830,44402
,Haochong,24.88,93.69,3730,6448
,Hapagaon,26.74,92.15,830,61266
,Hapoli,27.54,93.82,5029,2451
,Harina,23.21,92.35,410,4030
,Harirāmbāri,24.01,91.85,180,20413
,Hebeng,27.87,93.99,3349,1128
,Helāigāon,26.30,93.66,908,2980
,Hema,27.76,88.54,9580,0
,Hengken,24.29,93.87,2572,35367
,Hhmen,24.23,92.81,1669,16856
,Himāigāon,26.09,93.19,262,17043
,Hindubari,23.15,91.50,78,60459
,Hmunsām,24.08,92.79,2526,4265
,Hāpheka Bepari,26.19,93.55,2647,5112
,Ibrampur,15.71,73.94,42,17145
,Inglinggāon,26.19,93.34,2076,8474
,Jagvi,15.08,74.18,830,14191
,Jaintgarh,22.08,85.67,1125,38912
,Jakchen,27.78,88.47,11748,0
,Jakthang,27.78,88.47,11748,0
,Jalangi,25.12,88.70,55,64861
,Jallo,31.58,74.49,830,615952
,Jangar Choburi,26.68,92.68,252,10168
,Jaqui,15.08,74.18,830,14191
,Jatah,25.41,92.05,5029,10132
,Jawad,24.60,74.86,1669,23928
,Jiran,24.31,74.89,1669,32160
,Joipi,25.28,93.44,4189,3447
,Jun,24.18,93.93,5029,5161
,Kadi,25.30,93.77,5029,2533
,Kaiphundai,24.79,93.22,872,10489
,Kakaman,26.29,92.57,160,78140
,Kakching Khunou,24.40,93.90,2542,47830
,Kakriatalai,24.87,75.08,1669,12666
,Kalai,20.36,72.82,39,24968
,Kalān,31.53,74.55,830,239100
,Kambāng,27.76,93.52,4570,2016
,Kamāhu,26.56,94.78,3349,23780
,Kandihang,25.03,93.32,1669,2757
,Kang-gum,24.60,94.41,1669,2464
,Kangjonggaon,26.24,93.28,1683,9681
,Kangreng,24.45,93.11,1797,2746
,Karhi,27.03,83.00,285,87684
,Karīmganj,24.87,92.36,42,117329
,Kasba Mirgoda,21.72,87.48,39,96901
,Kathiwadar Bandar,20.97,71.56,29,19210
,Kauirik,32.09,78.68,11807,469
,Kawnpur,24.05,92.68,2096,4321
,Kenze Mane,27.80,91.75,9255,348
,Keozing,27.28,88.35,6148,14120
,Keran,34.65,73.95,5193,6407
,Kerhlām,25.02,93.18,830,7551
,Keromichomi,26.09,94.47,4189,9253
,Kerāng,28.03,88.77,16889,67
,Kewzing,27.28,88.35,6148,14120
,Khaa-ring,28.03,88.77,16889,67
,Khagam,27.51,96.18,830,10549
,Khali Kachigam,20.38,72.87,36,32797
,Khalyabari,24.16,92.27,830,18195
,Khawlian,24.00,93.13,3349,1529
,Khelma,25.53,93.31,1145,5163
,Khoinoi,24.22,93.78,3349,18515
,Khowai,24.08,91.60,45,62098
,Khubung Khulen,24.17,94.01,5029,4125
,Khuiarpom,27.19,94.01,305,35918
,Khurd,31.53,74.55,830,239100
,Khārua,26.56,91.35,180,45574
,Kidzematuma,25.77,94.24,3349,13292
,Kila,24.12,76.87,1669,8063
,Kivikhu,25.84,94.51,3526,7055
,Kolhen,24.44,93.50,2857,3576
,Koliagaon,27.04,94.24,265,49637
,Koloriang,27.91,93.36,2755,1459
,Kolukheri,24.22,76.69,1131,12029
,Kongtsung Toluba,26.71,94.71,1853,41163
,Koteshvar,23.68,68.53,16,1305
,Koteshwar,23.68,68.53,16,1305
,Kottur,18.62,80.37,298,3697
,Kotturu,18.62,80.37,298,3697
,Kulailangsngun,25.39,91.31,5029,8040
,Kulhati,26.25,91.57,114,53216
,Kulingmen,26.52,94.61,1253,23165
,Kumbi,24.43,93.81,2526,50302
,Kundanpur,22.73,74.43,1122,27278
,Kundarbilgaon,26.84,92.00,830,44231
,Kuppam,13.62,80.14,36,7550
,Kuppam,13.27,80.34,0,39050
,Kuvukhu,25.79,94.69,2601,10084
,Kyosing,27.28,88.35,6148,14120
,Kāhangarh,31.61,74.59,830,217557
,Kānching,26.65,94.72,1738,24659
,Kūdeh,26.26,94.77,5285,9405
,Lachen,27.73,88.55,9228,0
,Lachung,27.69,88.74,9228,0
,Lakha Pham,27.76,88.76,11748,0
,Lakha Pharma,27.76,88.76,11748,0
,Lakhan Khuman,24.83,94.50,4271,0
,Lakhaphama,27.76,88.76,11748,0
,Lalchara,24.07,91.60,45,57245
,Lalkek,25.43,93.28,839,3725
,Lalongmi,25.29,93.56,3392,6056
,Lalpani,24.81,93.08,104,25285
,Lalunggaon,27.46,94.55,291,24719
,Lama Disa,25.35,92.99,1788,2993
,Lambodhar,25.76,93.59,830,7609
,Lamdanmai,24.73,93.66,3349,5116
,Langdiangngan,25.28,90.99,1131,5445
,Langklam,25.45,92.74,2509,3082
,Langra Basti,26.25,93.96,305,45354
,Lankavanidibba,15.79,80.84,26,20016
,Lar,34.04,74.11,7700,9983
,Lari,34.04,74.11,7700,9983
,Larmare,25.94,91.63,1013,5628
,Lawmei,25.57,91.80,5029,65439
,Lawnamosu,22.11,92.85,830,2096
,Lema,27.65,88.72,8389,0
,Lewa,25.19,77.46,1669,14148
,Lingtam,27.25,88.71,4189,19384
,Litsammi,26.19,94.64,5029,11285
,Lizatomi,26.09,94.66,6197,15305
,Long,25.31,93.69,3349,4018
,Longpai,25.80,92.49,2509,8940
,Longting,26.90,95.16,2680,515
,Lozaphohemi,25.63,94.49,4261,25126
,Lukhambi,24.89,93.61,2664,5811
,Lumshken,25.32,92.26,3723,4608
,Lung Chhuan,24.02,92.77,1765,4352
,Lunghan,25.17,94.44,6128,5417
,Lungithang,26.03,94.34,2057,4477
,Lyngkhai,25.50,91.61,5180,12398
,Magarvara,20.39,72.85,36,14829
,Magdala,21.10,72.75,0,297230
,Magdalla,21.10,72.75,0,297230
,Mai,27.48,93.81,5029,1162
,Maibi Khunou,24.49,94.13,4189,6598
,Mailavani Chinna Lanka,16.33,81.68,0,32721
,Mainorāipāra,24.02,92.10,387,19811
,Maji,25.90,92.35,1801,8940
,Maklibari,24.07,91.40,39,77602
,Malala,20.71,70.95,13,10551
,Malandubi,26.71,90.48,354,20115
,Malangpa,25.22,92.83,3441,4049
,Malconda,15.43,74.23,830,7193
,Malikpur,31.96,74.65,830,45412
,Manda,25.73,90.46,830,10857
,Mandrem,15.67,73.72,52,24266
,Mangan,27.51,88.52,3349,12521
,Mangan Bazar,27.51,88.52,3349,12521
,Mangang,27.51,88.52,3349,12521
,Mangen,27.51,88.52,3349,12521
,Mangrol,26.24,77.35,830,40734
,Manhala Kalan,31.53,74.55,830,239100
,Manhiala Kalan,31.53,74.55,830,239100
,Manhiāla,31.53,74.55,830,239100
,Manhiāla Khurd,31.53,74.55,830,239100
,Manipur Road,25.88,93.77,830,47086
,Manitiram,27.81,94.53,1958,1231
,Manu,27.52,88.58,5869,11344
,Manul,27.52,88.58,5869,11344
,Maohing,25.20,93.90,5029,14621
,Marabume,25.47,94.36,5029,17040
,Masabdisa,25.66,93.17,830,9802
,Mathani,26.62,93.51,334,23208
,Matvad,20.92,72.83,29,33289
,Matwad,20.92,72.83,29,33289
,Mawdem,25.23,91.97,1669,15141
,Mawlashin,24.91,94.69,4258,429
,Mawlat,25.36,91.97,1847,11483
,Mawmarin,25.41,91.10,2509,5350
,Mawphaniaw,25.69,91.61,4530,9536
,Mawshaladiang,25.78,92.18,3349,8704
,Mawskei,25.86,91.55,974,13194
,Mawsmai,26.10,91.88,265,19819
,Medum,27.13,93.27,4288,653
,Mehegam Bangal,21.67,72.76,29,11938
,Mehegaum,21.67,72.76,29,11938
,Mencurem,15.70,73.88,9,27409
,Mesangpi,26.20,94.19,1998,9382
,Midpu,27.21,93.76,1922,10380
,Mikirgaon,26.36,93.25,1879,16344
,Mikirgaon,26.14,92.69,131,62674
,Miklipara,25.05,92.43,830,19602
,Mohara,19.87,82.50,931,18545
,Molong,24.97,93.15,288,17285
,Molsang,24.91,94.69,4258,429
,Mome Samdong,27.91,88.71,16827,0
,Mongon,24.29,93.37,2509,2533
,Mongon,27.51,88.52,3349,12521
,Morgim,15.63,73.73,19,46222
,Moshrat,25.58,92.52,3349,7993
,Muiri,27.78,93.61,2509,2429
,Muktapur,26.42,91.74,121,58614
,Mula Kot,31.65,74.54,830,239025
,Muphlang,25.41,92.18,4356,20574
,Murbari,24.18,91.82,55,31652
,Murhari,24.18,91.82,55,31652
,Mutong,25.34,92.59,3490,4191
,Mynska,25.45,92.44,3589,9420
,Mākliban,24.07,91.40,39,77602
,Nagaon,26.71,92.59,383,10022
,Nagg Tel,27.54,88.62,5029,1850
,Nalong,25.41,93.80,5364,3571
,Nandgom,19.76,72.69,26,41265
,Nanga,27.54,88.62,5029,1850
,Naolsalia,26.59,94.03,390,31940
,Navapur,19.79,72.69,19,52236
,Navlakhi,22.96,70.45,32,5835
,Nawapur,19.79,72.69,19,52236
,Nawābandar,20.74,71.07,3,18462
,Naya Bāzār,27.13,88.24,2844,23753
,Nepāligāon,26.97,93.98,265,26196
,Netorlim,15.08,74.22,367,8236
,Ngarikhunaw,25.34,94.33,4603,20464
,Ngawar,25.28,94.26,4491,23041
,Niausao,26.82,95.28,4189,6408
,Nibia,28.02,81.62,830,51788
,Nij Charaibahi,26.29,92.45,177,61686
,Nokhu,26.15,95.02,3576,3201
,Nonghab,25.95,92.03,2509,7503
,Nongianglang,25.79,91.09,2020,7111
,Nongiapam,25.79,91.19,2053,9097
,Nongjri,25.75,91.91,3349,12881
,Nongkia,25.22,91.47,898,8952
,Nongkrem,25.72,91.46,3349,7038
,Nongkrong,25.58,91.08,3349,3725
,Nonglwai,25.45,91.33,4376,7263
,Nongmen,25.34,90.90,1669,3725
,Nongsning,25.25,92.40,1958,4244
,Nongtraw,25.68,92.02,2854,8536
,Nowapur,19.79,72.69,19,52236
,Nundem,15.07,74.20,830,11344
,Nungon,25.01,94.41,4465,6478
,Nāchugunta,15.79,80.89,36,16069
,Nālāpāra,25.89,91.18,830,23175
,Nāndgaon,19.76,72.69,26,41265
,Nātudaha,23.65,88.67,42,104602
,Odhar,31.66,74.54,830,194357
,Odxel,15.45,73.82,0,71515
,Oinam,24.69,93.81,2536,75827
,Orxel,15.45,73.82,0,71515
,Oting,26.84,94.96,1000,14664
,Oxel,15.28,74.25,1669,7339
,Ozorim,15.68,73.88,82,38697
,Pa-li-chia-ssu,32.70,79.45,14268,0
,Pachi,27.23,88.47,3349,26547
,Padamchen,27.24,88.77,5928,13819
,Pahumaragaon,27.12,94.11,275,55340
,Pakhriapura,24.07,76.96,1669,13362
,Pale,15.36,73.88,22,134883
,Pamionchi,27.30,88.25,5331,17108
,Pamsanngul,25.41,91.66,5262,9459
,Panari,26.55,91.84,160,42351
,Pangkibot,24.88,93.47,4271,5774
,Paren,27.06,88.87,1902,14683
,Pariali,20.38,72.84,49,18241
,Parigas,32.70,79.45,14268,0
,Partapur,19.99,80.73,1003,12069
,Partābpur,19.99,80.73,1003,12069
,Pasewada,19.27,80.46,830,2998
,Paten,27.06,88.87,1902,14683
,Pathachara,23.45,91.93,406,11146
,Pathakata,26.51,90.10,141,33589
,Pathakhuri,24.38,92.40,150,40071
,Pemayangtse,27.30,88.25,5331,17108
,Pemionchi,27.30,88.25,5331,17108
,Pemir,27.75,93.96,2919,1049
,Perabharigaon,27.19,94.40,298,8939
,Perhen,26.52,93.65,1223,2991
,Phaibak,24.56,93.15,1148,6247
,Phaiyeng,24.85,93.82,2604,32018
,Phalai,21.87,74.45,3395,15
,Phangchagaon,26.43,93.82,347,24112
,Phatika,26.74,93.20,229,35635
,Phayeng,24.85,93.82,2604,32018
,Phensāng,27.42,88.61,4189,12565
,Phoipi,24.52,93.60,2509,3576
,Photspi,25.26,91.52,3349,8750
,Phuitomi,25.47,93.76,3349,6840
,Phusaria,25.00,75.29,1233,13058
,Pinchi,27.77,93.32,6709,1409
,Piparav,20.97,71.56,29,19210
,Pipavav Bandar,20.97,71.56,29,19210
,Piproda,25.07,77.45,1669,14469
,Podame,20.70,70.95,0,8482
,Podamo,20.70,70.95,0,8482
,Pongu,26.49,94.87,2775,18691
,Potin,27.34,93.83,3349,570
,Potrem,15.20,74.26,249,6030
,Prial,20.38,72.84,49,18241
,Pul Kanjri,31.64,74.56,830,302804
,Punkhung,26.77,94.96,3664,9908
,Purura Khulen,24.40,93.98,3349,16598
,Pānigāon,26.38,92.79,190,50364
,Querim,15.72,73.67,0,12456
,Rabanpalli,17.06,77.48,1791,23389
,Raddar,27.23,93.54,2732,7917
,Raga,27.08,93.25,2831,666
,Raghūnāthpur,26.05,76.96,830,9353
,Rajabari,26.94,94.85,830,41008
,Rajapukhuri,26.10,91.48,177,63292
,Rangmaw,25.37,91.52,5029,8126
,Ranian,31.70,74.51,830,101867
,Ratan Khurd,31.62,74.57,830,271910
,Ratangarh,24.82,75.12,1243,13366
,Ratanpur,21.65,72.25,88,32265
,Razephema,25.72,93.80,1669,15947
,Rhādākishorpur,24.24,92.29,193,27866
,Riangchi,27.89,93.43,2732,1564
,Rimrāngpāra,25.33,90.28,121,8344
,Ringui,25.05,94.25,4311,8195
,Rishetsu,25.96,94.75,5869,11065
,Romgiri,25.73,90.14,830,27559
,Rongrā Āsimgiri,25.39,90.43,1669,8347
,Roranwala Khurd,31.60,74.59,830,228399
,Rushyabari,23.45,91.93,406,11146
,Rājnagar,24.30,92.19,111,40257
,Sahryngkham,25.55,91.96,5029,118184
,Saichang,24.45,93.41,1069,3317
,Sajrang,25.79,91.75,2509,7898
,Sakmuthigoan,26.57,92.98,200,40716
,Sakyang,27.57,88.40,6709,2066
,Sakyong,27.57,88.40,6709,2066
,Salem,15.70,73.92,22,19308
,Samdong,27.35,88.50,4511,27653
,Sandrābāj,24.46,91.92,26,88029
,Sangpurr,26.13,94.85,6856,4701
,Sar,34.01,74.03,9228,9983
,Satapati Port,19.72,72.70,0,38205
,Satpara,19.65,85.43,3,12423
,Satpate,19.72,72.70,0,38205
,Satpati,19.72,72.70,0,38205
,Saunk,27.40,77.48,830,40554
,Sawan Pathri,34.03,74.05,7627,9983
,Sebba,27.23,93.03,2818,3319
,Sejawada,22.63,74.32,1669,42501
,Sejāwara,22.63,74.32,1669,42501
,Sekhe,27.35,93.74,3375,378
,Semri,24.55,70.33,223,6109
,Sengmai,24.95,93.88,2627,6231
,Sentam,27.52,88.56,4189,12136
,Sethawn,24.12,92.70,1669,4321
,Shampur,26.08,77.04,830,7910
,Shamtorr,26.06,94.88,4251,5304
,Shartang,24.07,93.73,4189,2736
,Shelkai,24.02,93.80,4189,4270
,Shella,25.18,91.64,830,15396
,Sherpur,24.67,92.35,52,86303
,Shiong,26.70,94.93,3349,13190
,Shirgaon,19.70,72.72,13,45957
,Shonkāria,26.46,91.47,141,83866
,Shorbung,25.26,94.13,4212,16796
,Shāmpura,24.01,76.05,1669,20256
,Sibāpurikhal,24.57,93.09,160,18492
,Sicham,27.14,92.58,4189,975
,Sidhung,24.51,92.35,108,45266
,Sigonem,15.12,74.25,958,6593
,Sihphir,23.82,92.74,3592,54739
,Sildubi,26.58,93.31,387,25785
,Silua,24.54,92.15,32,89293
,Simila,26.02,91.16,242,33648
,Singhik,27.52,88.56,4189,12136
,Singkap,24.86,94.25,3500,2235
,Singtam,27.28,88.08,7549,12958
,Singura,24.71,92.47,91,60756
,Siranguli,15.48,74.18,213,9480
,Sirangulim,15.48,74.18,213,9480
,Sircodem,15.50,74.17,259,12985
,Siri,19.70,72.72,13,45957
,Sirsodem,15.50,74.17,259,12985
,Soda Dhakhi,34.04,74.11,6896,9983
,Sokpao,24.98,94.27,4520,7319
,Somnath,20.89,70.40,42,102362
,Sonarijangaon,26.22,93.14,229,17582
,Sonaulim,15.32,74.30,830,5634
,Sonārihola,26.55,92.88,216,33966
,Soshing,27.28,88.35,6148,14120
,Sosing,27.28,88.35,6148,14120
,Soyet,24.19,76.18,1112,19043
,Sri Chhatarpur,24.54,75.94,1118,23440
,Sukaltirth,21.75,73.12,45,57274
,Suklatirth,21.75,73.12,45,57274
,Sukol,32.30,75.33,853,47148
,Sunphān,26.82,90.17,1669,18393
,Surla,15.42,74.20,246,7753
,Suvāli,21.17,72.64,39,1071182
,Suwali,21.17,72.64,39,1071182
,Swally,21.17,72.64,39,1071182
,Sāda Dhakki,34.04,74.11,6896,9983
,Sāhūwāl,31.97,74.76,830,51921
,Sāpatimi,26.20,94.55,5029,12354
,Sātgaon,26.15,91.85,170,24246
,Sūryalanka,15.85,80.53,0,30547
,Tabumoreng,27.34,93.07,4189,4321
,Tachhip,23.58,92.72,2614,832
,Tadong,27.30,88.60,3349,56649
,Takarnam,27.11,93.52,3349,12481
,Takirambari,24.23,91.95,164,37701
,Taksing,28.57,93.27,15249,185
,Taktsang,28.57,93.27,15249,185
,Talphoi,24.32,93.62,4189,20096
,Tamaso,27.13,93.39,4501,444
,Tarangbiang,25.21,92.21,2017,9865
,Tasku,25.95,91.75,885,3217
,Teikhang,24.59,93.37,1738,3525
,Tekhug,27.37,88.80,12828,24558
,Telipara,26.03,91.08,223,35792
,Terhagachh,26.41,87.67,180,65436
,Tesha,27.32,92.69,4419,1226
,Thagli,32.35,75.30,967,42108
,Thakurbari,24.40,92.23,88,48162
,Thanggu,27.90,88.54,13625,0
,Thangmo,25.65,92.65,2509,8940
,Thayang,25.95,92.12,2509,8346
,Thekuk,27.37,88.80,12828,24558
,Thibāpāra,25.24,90.22,187,14072
,Thilon,24.99,93.41,1669,2689
,Thode,27.10,88.84,4189,16720
,Thowbānga,26.81,92.90,830,30539
,Thudmpui,22.98,92.71,1850,1080
,Thuthibari,27.43,83.70,288,48911
,Thutibari,27.43,83.70,288,48911
,Tieh-mu-ch'o-k'o,32.70,79.45,14268,0
,Tieh-mu-ch'o-k'o-tsung,32.70,79.45,14268,0
,Tieh-mu-ch’o-k’o,32.70,79.45,14268,0
,Tieh-mu-ch’o-k’o-tsung,32.70,79.45,14268,0
,Tilasma,25.06,75.33,1669,15927
,Tingaon,25.05,92.57,1197,36188
,Tipamia,27.26,95.18,357,44700
,Tirkang,29.09,95.15,8389,149
,Tithal,20.60,72.90,55,92391
,Tiyingchomo,26.11,94.24,3349,38523
,Toichum,24.16,93.80,2851,12509
,Tolbung,24.38,93.15,1811,2682
,Toldem,15.43,74.20,331,7719
,Toushen Khund,25.12,93.38,2053,2517
,Tsaikiyang,25.98,94.67,6171,13550
,Tsetang,27.83,88.78,15226,0
,Tsuntang,27.61,88.64,5869,25
,Tsunthang,27.61,88.64,5869,25
,Tumlong,27.42,88.58,5029,11469
,Turibari,27.36,94.63,334,23630
,Tusom,24.79,94.43,3349,1508
,Tusora Khulan,25.40,94.59,4402,3003
,Tālo,27.54,93.76,5029,1376
,Ukha,24.46,93.65,5180,6466
,Ukkerputti,19.82,72.67,0,41794
,Umarkot,24.08,76.13,1190,18977
,Umjah,25.49,91.11,3349,4624
,Umpli,25.87,91.88,1679,32085
,Umrat,21.01,72.74,45,27491
,Umsohphie,25.65,91.81,3349,13817
,Uralagonditippa,16.35,81.41,3,16709
,Urmal,19.90,82.52,892,13056
,Vanbawng,24.04,93.06,2509,1576
,Vapi,20.37,72.91,65,94462
,Varca,15.23,73.94,55,108570
,Vawngawn,24.06,92.51,961,1038
,Vengni,21.69,72.71,0,5201
,Venādu,13.64,80.13,39,9405
,Verlem,15.04,74.25,1873,7625
,Vichondrem,15.10,74.20,403,9794
,Vihod,21.53,72.71,22,4410
,Vihode,21.53,72.71,22,4410
,Viliena,15.17,74.23,282,7763
,Vingni,21.69,72.71,0,5201
,Wansa,26.96,95.34,1669,9884
,Wāpi,20.37,72.91,65,94462
,Yamua Khunov,24.49,93.74,2555,62197
,Yangang,27.28,88.41,2782,14931
,Yangpi,26.40,94.78,3700,19715
,Yelatturdibba,15.78,80.87,26,17963
,Yoto,27.32,93.00,2887,4321
,Youpi,24.10,93.98,4360,4470
,Yume Samdong,27.91,88.71,16827,0
,Yumtang,27.80,88.70,12814,0
,Yumthang,27.80,88.70,12814,0
,Zanak,27.90,88.27,21827,0
,Zema,27.76,88.54,9580,0
,Zhekiya,25.93,94.49,5029,9039
,Zākhung,27.90,88.42,16259,0
Andaman and Nicobar Islands,Aberdeen,11.67,92.73,68,38132
Andaman and Nicobar Islands,Alipur,11.73,92.68,232,5355
Andaman and Nicobar Islands,Anowa,7.97,93.55,830,770
Andaman and Nicobar Islands,Arainj-laka-punga,12.60,92.72,16,73
Andaman and Nicobar Islands,Arong,9.17,92.72,3,13393
Andaman and Nicobar Islands,Austinabad,11.63,92.75,203,22347
Andaman and Nicobar Islands,Bamboo Flat,11.70,92.72,157,21475
Andaman and Nicobar Islands,Bambooflat,11.70,92.72,157,21475
Andaman and Nicobar Islands,Bananga,6.95,93.90,187,1581
Andaman and Nicobar Islands,Beadonābād,11.58,92.73,118,5831
Andaman and Nicobar Islands,Bengala,8.32,93.10,88,735
Andaman and Nicobar Islands,Betapur,12.72,92.90,288,2446
Andaman and Nicobar Islands,Bindraban,11.72,92.67,187,6915
Andaman and Nicobar Islands,Birchganj,11.62,92.75,127,19710
Andaman and Nicobar Islands,Bonington,12.92,92.90,0,1337
Andaman and Nicobar Islands,Brookesābād,11.62,92.75,127,19710
Andaman and Nicobar Islands,Bumlitan,11.62,92.70,216,27978
Andaman and Nicobar Islands,Bājajāg,11.72,92.67,187,6915
Andaman and Nicobar Islands,Calicut,11.60,92.73,209,17929
Andaman and Nicobar Islands,Chanumia,8.35,93.10,354,457
Andaman and Nicobar Islands,Chanumla,8.32,93.08,150,709
Andaman and Nicobar Islands,Chetamale,10.72,92.55,78,108
Andaman and Nicobar Islands,Chingenh,6.81,93.85,173,1390
Andaman and Nicobar Islands,Dak-omkeh,7.08,93.65,0,850
Andaman and Nicobar Islands,Dak-omkeli,7.08,93.65,0,850
Andaman and Nicobar Islands,Diglipur,13.27,93.00,144,4050
Andaman and Nicobar Islands,Dit-dak,7.32,93.63,203,1096
Andaman and Nicobar Islands,Dolyganj,11.63,92.63,0,3245
Andaman and Nicobar Islands,Dākoānk,7.03,93.72,364,1779
Andaman and Nicobar Islands,Endea-geleda,10.68,92.35,0,46
Andaman and Nicobar Islands,Enfak,7.36,93.63,216,804
Andaman and Nicobar Islands,Enounga,8.02,93.53,0,1120
Andaman and Nicobar Islands,Eoya,8.28,93.10,49,932
Andaman and Nicobar Islands,Garacharma,11.62,92.72,239,28637
Andaman and Nicobar Islands,Garacherama,11.62,92.72,239,28637
Andaman and Nicobar Islands,Geinyale,10.57,92.53,19,78
Andaman and Nicobar Islands,Goplakabang,11.77,92.72,344,148
Andaman and Nicobar Islands,Haddo,11.68,92.72,98,37127
Andaman and Nicobar Islands,Haoin,8.32,93.10,88,735
Andaman and Nicobar Islands,Hastmatabad,11.60,92.63,187,316
Andaman and Nicobar Islands,Henhōaha,6.82,93.82,55,1325
Andaman and Nicobar Islands,Henoaha,6.82,93.82,55,1325
Andaman and Nicobar Islands,Henpoin,6.87,93.77,0,754
Andaman and Nicobar Islands,Heoin,8.32,93.10,88,735
Andaman and Nicobar Islands,Herberiabad,11.72,92.62,39,130
Andaman and Nicobar Islands,Herbertābād,11.72,92.62,39,130
Andaman and Nicobar Islands,Heya,7.42,93.70,3,370
Andaman and Nicobar Islands,Hinam,8.25,93.08,0,673
Andaman and Nicobar Islands,Hobdaypur,11.65,92.65,75,15543
Andaman and Nicobar Islands,Homfrayganj,11.60,92.67,232,10758
Andaman and Nicobar Islands,Hope Town,11.67,92.73,68,38132
Andaman and Nicobar Islands,Ignoitijala,10.55,92.35,0,25
Andaman and Nicobar Islands,Ilichar,13.22,92.87,370,3296
Andaman and Nicobar Islands,Inaka,8.07,93.53,3,1140
Andaman and Nicobar Islands,Ingoie,10.52,92.48,3,75
Andaman and Nicobar Islands,Ingoitijala,10.55,92.35,0,25
Andaman and Nicobar Islands,Jalebar,12.02,92.93,0,20
Andaman and Nicobar Islands,Jangli Ghāt,11.67,92.73,68,38132
Andaman and Nicobar Islands,Janglighāt,11.67,92.73,68,38132
Andaman and Nicobar Islands,Kanālla,6.97,93.92,196,1310
Andaman and Nicobar Islands,Karen,12.85,92.88,830,2832
Andaman and Nicobar Islands,Karen village,12.85,92.88,830,2832
Andaman and Nicobar Islands,Kartara,12.73,92.75,3,1991
Andaman and Nicobar Islands,Keaiya,8.18,93.47,72,888
Andaman and Nicobar Islands,Keaiya,8.20,93.48,29,875
Andaman and Nicobar Islands,Kemios,9.13,92.78,19,13044
Andaman and Nicobar Islands,Kerawa,8.25,93.12,26,859
Andaman and Nicobar Islands,Kimus,9.13,92.78,19,13044
Andaman and Nicobar Islands,Kire-Henpoan,7.98,93.38,167,1356
Andaman and Nicobar Islands,Koi-hoa,8.20,93.48,29,875
Andaman and Nicobar Islands,Koi-mekeah,7.92,93.35,9,1341
Andaman and Nicobar Islands,Kola-rue,8.23,93.17,3,623
Andaman and Nicobar Islands,Kwachengui,10.58,92.60,0,1
Andaman and Nicobar Islands,Kwate tu Kwage,10.62,92.57,0,29
Andaman and Nicobar Islands,Kākana,9.12,92.80,0,7911
Andaman and Nicobar Islands,Laful,7.17,93.87,157,1274
Andaman and Nicobar Islands,Laksi,8.22,93.15,3,599
Andaman and Nicobar Islands,Lapate,9.22,92.80,3,9144
Andaman and Nicobar Islands,Lopate,9.22,92.80,3,9144
Andaman and Nicobar Islands,Maimyo,11.60,92.63,187,316
Andaman and Nicobar Islands,Maitaita-anla,6.83,93.88,259,1464
Andaman and Nicobar Islands,Malacca,9.17,92.82,3,10783
Andaman and Nicobar Islands,Malappuram,11.78,92.72,314,149
Andaman and Nicobar Islands,Manglutan,11.58,92.65,65,298
Andaman and Nicobar Islands,Manjeri,11.58,92.67,160,1953
Andaman and Nicobar Islands,Mannar Ghat,11.77,92.72,344,148
Andaman and Nicobar Islands,Manpur,11.68,92.62,9,1605
Andaman and Nicobar Islands,Maru,8.10,93.48,95,1099
Andaman and Nicobar Islands,Matait-anla,6.83,93.88,259,1464
Andaman and Nicobar Islands,Mathura,11.72,92.68,177,8664
Andaman and Nicobar Islands,Mattai-ta-hoe,7.98,93.57,85,743
Andaman and Nicobar Islands,Mitha Khari,11.65,92.67,127,24041
Andaman and Nicobar Islands,Mohean,7.97,93.32,29,817
Andaman and Nicobar Islands,Moshōit,8.17,93.52,0,967
Andaman and Nicobar Islands,Mus,9.23,92.78,3,9810
Andaman and Nicobar Islands,Māyābandar,12.93,92.93,0,763
Andaman and Nicobar Islands,Nachuge,10.78,92.35,0,35
Andaman and Nicobar Islands,Namūnaghar,11.65,92.68,118,28476
Andaman and Nicobar Islands,Oal-hetaih,7.92,93.32,0,697
Andaman and Nicobar Islands,Oallorong,8.32,93.08,150,709
Andaman and Nicobar Islands,Obate,10.80,92.60,0,11
Andaman and Nicobar Islands,Oel-hetaih,7.92,93.32,0,697
Andaman and Nicobar Islands,Ogechai,10.85,92.45,39,78
Andaman and Nicobar Islands,Ok-Chauka,8.07,93.57,19,592
Andaman and Nicobar Islands,Olenchi,7.93,93.45,9,772
Andaman and Nicobar Islands,Oukchaung,9.15,92.72,3,12355
Andaman and Nicobar Islands,Oukchong,9.15,92.72,3,12355
Andaman and Nicobar Islands,Pahiala,8.27,93.11,36,939
Andaman and Nicobar Islands,Pahlagaon,12.83,92.87,177,2980
Andaman and Nicobar Islands,Pahua,7.37,93.62,0,471
Andaman and Nicobar Islands,Palalankwe,10.87,92.48,55,76
Andaman and Nicobar Islands,Passa,9.20,92.75,127,16582
Andaman and Nicobar Islands,Patau,7.33,93.70,1181,1425
Andaman and Nicobar Islands,Patua,7.33,93.70,1181,1425
Andaman and Nicobar Islands,Perka,9.18,92.82,0,10706
Andaman and Nicobar Islands,Phaiapong,13.28,92.95,400,4914
Andaman and Nicobar Islands,Po'shat,8.25,93.22,3,181
Andaman and Nicobar Islands,Port Blair,11.67,92.75,13,26562
Andaman and Nicobar Islands,Port Bleras,11.67,92.75,13,26562
Andaman and Nicobar Islands,Portus Blairensis,11.67,92.75,13,26562
Andaman and Nicobar Islands,Po’shat,8.25,93.22,3,181
Andaman and Nicobar Islands,Protheroepu,11.62,92.72,239,28637
Andaman and Nicobar Islands,Protheroepur,11.62,92.72,239,28637
Andaman and Nicobar Islands,Pulo Bakka,6.84,93.78,0,829
Andaman and Nicobar Islands,Pulo Kunji,7.03,93.67,59,894
Andaman and Nicobar Islands,Pōahat,8.25,93.22,3,181
Andaman and Nicobar Islands,Rangachāng,11.58,92.75,0,3304
Andaman and Nicobar Islands,Rongat,12.47,92.93,3,110
Andaman and Nicobar Islands,Sabari,12.50,92.90,3,146
Andaman and Nicobar Islands,Sanenya,8.47,93.03,39,91
Andaman and Nicobar Islands,Sawai,9.20,92.72,3,10141
Andaman and Nicobar Islands,Shadipur,11.65,92.75,65,27712
Andaman and Nicobar Islands,Shake,7.88,93.35,0,567
Andaman and Nicobar Islands,Stewartganj,11.72,92.72,196,12164
Andaman and Nicobar Islands,Sāwi,9.20,92.72,3,10141
Andaman and Nicobar Islands,Tabiag,8.22,93.15,3,599
Andaman and Nicobar Islands,Tabiag,8.21,93.15,3,571
Andaman and Nicobar Islands,Tafwap,7.38,93.72,42,912
Andaman and Nicobar Islands,Taka-rōait,8.22,83.53,0,0
Andaman and Nicobar Islands,Talarom,8.17,93.45,68,703
Andaman and Nicobar Islands,Talārām,8.17,93.45,68,703
Andaman and Nicobar Islands,Tamala,9.20,92.82,0,8903
Andaman and Nicobar Islands,Tamalco,9.20,92.82,0,8903
Andaman and Nicobar Islands,Tamalu,9.20,92.82,0,8903
Andaman and Nicobar Islands,Tambe-e-bui,10.83,92.54,3,80
Andaman and Nicobar Islands,Tapivang,8.07,93.57,19,592
Andaman and Nicobar Islands,Tapuyē,7.90,93.45,249,726
Andaman and Nicobar Islands,Tapīyang,8.07,93.57,19,592
Andaman and Nicobar Islands,Taylerābād,11.60,92.70,239,18195
Andaman and Nicobar Islands,Temain,7.25,93.63,0,512
Andaman and Nicobar Islands,Tenlāa,7.02,93.90,344,1539
Andaman and Nicobar Islands,Thaiapong,13.28,92.95,400,4914
Andaman and Nicobar Islands,Tiden,7.25,93.65,0,468
Andaman and Nicobar Islands,Titaije,10.72,92.53,141,141
Andaman and Nicobar Islands,Titaiji,10.72,92.53,141,141
Andaman and Nicobar Islands,Tochangedu,10.70,92.35,0,55
Andaman and Nicobar Islands,Toibalawe,10.53,92.50,19,79
Andaman and Nicobar Islands,Toibalewe,10.53,92.50,19,79
Andaman and Nicobar Islands,Toinyugeda,10.68,92.63,0,5
Andaman and Nicobar Islands,Tusonabad,11.68,92.63,52,3799
Andaman and Nicobar Islands,Tāe-angha,6.93,93.75,36,1015
Andaman and Nicobar Islands,U-rèk-ka (Malacca),9.17,92.82,3,10783
Andaman and Nicobar Islands,Wimberleyganj,11.73,92.72,285,8551
Andaman and Nicobar Islands,Wrightmyo,11.78,92.72,314,149
Andaman and Nicobar Islands,Yat-kirana,8.23,93.23,0,210
Andaman and Nicobar Islands,Yāditā,12.47,92.72,203,93
Andaman and Nicobar Islands,Горад Порт-Блэр,11.67,92.75,13,26562
Andaman and Nicobar Islands,Порт Блер,11.67,92.75,13,26562
Andaman and Nicobar Islands,Порт-Блер,11.67,92.75,13,26562
Andaman and Nicobar Islands,Порт-Блэр,11.67,92.75,13,26562
Andaman and Nicobar Islands,פורט בלייר,11.67,92.75,13,26562
Andaman and Nicobar Islands,پورت بلر,11.67,92.75,13,26562
Andaman and Nicobar Islands,پورٹ بلیئر,11.67,92.75,13,26562
Andaman and Nicobar Islands,पोर्ट ब्लेयर,11.67,92.75,13,26562
Andaman and Nicobar Islands,पोर्ट ब्लेर,11.67,92.75,13,26562
Andaman and Nicobar Islands,पोर्टब्लेयर,11.67,92.75,13,26562
Andaman and Nicobar Islands,পোর্ট ব্লেয়ার,11.67,92.75,13,26562
Andaman and Nicobar Islands,ਪੋਰਟ ਬਲੇਅਰ,11.67,92.75,13,26562
Andaman and Nicobar Islands,પોર્ટ બ્લૅર,11.67,92.75,13,26562
Andaman and Nicobar Islands,ପୋର୍ଟ ବ୍ଲେୟର,11.67,92.75,13,26562
Andaman and Nicobar Islands,போர்ட் பிளேர்,11.67,92.75,13,26562
Andaman and Nicobar Islands,மதுரா,11.72,92.68,177,8664
Andaman and Nicobar Islands,ಪೋರ್ಟ್ ಬ್ಲೇರ್,11.67,92.75,13,26562
Andaman and Nicobar Islands,പോർട്ട് ബ്ലെയർ,11.67,92.75,13,26562
Andaman and Nicobar Islands,พอร์ตแบลร์,11.67,92.75,13,26562
Andaman and Nicobar Islands,პორტ-ბლერი,11.67,92.75,13,26562
Andaman and Nicobar Islands,ポートブレア,11.67,92.75,13,26562
Andaman and Nicobar Islands,포트블레어,11.67,92.75,13,26562
Andhra Pradesh,Abaiah Dargah,18.65,78.00,1233,51262
Andhra Pradesh,Abalasingi,18.65,83.87,1249,26244
Andhra Pradesh,Abapuram,18.83,78.01,1158,33394
Andhra Pradesh,Abbaipalem,17.39,79.91,964,32885
Andhra Pradesh,Abbapur,19.22,79.34,997,12377
Andhra Pradesh,Abbapuram,18.63,79.24,935,33403
Andhra Pradesh,Abbavandlapalle,14.28,77.83,1669,19791
Andhra Pradesh,Abbayagudem,18.21,80.54,354,9069
Andhra Pradesh,Abbenda,18.06,77.72,1669,38133
Andhra Pradesh,Abbineniguntapālem,16.14,80.33,65,44290
Andhra Pradesh,Abbireddipalle,15.44,77.86,1669,32058
Andhra Pradesh,Abbāpur,18.82,79.11,830,37054
Andhra Pradesh,Abbāpuram,18.74,78.03,1249,69837
Andhra Pradesh,Abbāreddigūdem,16.89,79.76,308,41248
Andhra Pradesh,Abbūru,16.45,80.17,177,69282
Andhra Pradesh,Abdul Nagaram,17.93,79.23,1669,30665
Andhra Pradesh,Abdullahnagar,18.29,78.29,1732,49460
Andhra Pradesh,Abdullapur,17.32,78.69,1669,35963
Andhra Pradesh,Abdullāpuram,18.96,78.04,1059,19745
Andhra Pradesh,Abhagapatnam,18.76,78.02,1220,58550
Andhra Pradesh,Abhangapur,16.77,77.63,1692,27841
Andhra Pradesh,Abhangāpatan,16.78,77.86,1669,29545
Andhra Pradesh,Abicherla,17.70,81.33,111,9562
Andhra Pradesh,Abids,17.39,78.48,1669,3099280
Andhra Pradesh,Abripāpāyapalli,18.47,79.47,830,30266
Andhra Pradesh,Achainpalle,14.00,77.30,2076,36068
Andhra Pradesh,Achaipalli,18.15,78.03,1669,20545
Andhra Pradesh,Achampet,16.63,80.12,111,28120
Andhra Pradesh,Achampet,18.21,77.91,1669,23010
Andhra Pradesh,Achampet,16.40,78.64,1669,18148
Andhra Pradesh,Achannapālem,18.26,83.94,32,113349
Andhra Pradesh,Achapalli,16.62,77.97,1669,30137
Andhra Pradesh,Achareddipalli,18.40,79.63,830,24962
Andhra Pradesh,Acharyāpur,16.75,77.81,1669,32063
Andhra Pradesh,Achchaba,18.69,83.74,1696,17050
Andhra Pradesh,Achchampalle,14.35,77.30,1669,35226
Andhra Pradesh,Achchampalli,18.38,79.41,885,42408
Andhra Pradesh,Achchampeta,16.44,77.43,1135,13530
Andhra Pradesh,Achchampeta,17.32,82.25,259,40858
Andhra Pradesh,Achchampeta,17.03,82.23,36,175802
Andhra Pradesh,Achchampeta,17.54,82.42,413,29561
Andhra Pradesh,Achchampeta,17.31,82.33,374,48154
Andhra Pradesh,Achchampeta Tanda,16.64,79.01,830,23419
Andhra Pradesh,Achchampālem,17.02,80.89,344,27667
Andhra Pradesh,Achchannagūda,17.56,78.26,1669,70183
Andhra Pradesh,Achchannapalem,16.96,81.43,246,38957
Andhra Pradesh,Achchava,18.99,83.52,1669,18308
Andhra Pradesh,Achchayapeta,18.47,83.38,311,51385
Andhra Pradesh,Achchayyapalem,17.22,81.39,413,16236
Andhra Pradesh,Achchayyapeta,17.45,82.08,830,9384
Andhra Pradesh,Achchayyapeta,17.70,82.96,173,130227
Andhra Pradesh,Achchemmapalem,16.15,80.01,183,63725
Andhra Pradesh,Achcherla,17.66,82.85,104,43677
Andhra Pradesh,Achcheyapālem,16.17,79.90,223,37603
Andhra Pradesh,Achchipoluvalasa,18.34,83.84,75,107157
Andhra Pradesh,Achchitāpuram,18.26,83.50,229,60875
Andhra Pradesh,Achchutapuram,17.43,82.55,121,48706
Andhra Pradesh,Achchutapuram,17.58,82.87,22,64082
Andhra Pradesh,Achchutapuram,17.56,82.98,75,62467
Andhra Pradesh,Acheli,19.44,79.57,830,10935
Andhra Pradesh,Achhampet,17.77,78.31,1840,29719
Andhra Pradesh,Achhampet,17.92,78.40,1669,31157
Andhra Pradesh,Achhamāyapalli,18.23,78.64,1669,35443
Andhra Pradesh,Achhanapeta,18.54,78.84,1177,36102
Andhra Pradesh,Achhayyāpalli,17.71,78.58,2004,28650
Andhra Pradesh,Achingi,18.32,82.47,3349,11848
Andhra Pradesh,Achitapur,16.39,78.04,1669,53785
Andhra Pradesh,Achlapur,19.16,79.53,830,16610
Andhra Pradesh,Achnapalli,17.99,78.08,1669,33893
Andhra Pradesh,Achutapuram,17.27,81.05,830,12332
Andhra Pradesh,Achutapuram,17.12,81.46,209,49086
Andhra Pradesh,Achutāpuram,13.93,77.31,2053,33917
Andhra Pradesh,Achyutāpuram,18.57,83.97,91,41982
Andhra Pradesh,Achārpalli,17.88,79.64,980,46876
Andhra Pradesh,Achāyāpalle,14.03,77.94,2509,25339
Andhra Pradesh,Adadākulapalle,14.04,77.55,2004,21005
Andhra Pradesh,Adaguppa,14.64,76.82,1761,44996
Andhra Pradesh,Adakula,17.60,82.44,357,21697
Andhra Pradesh,Adalputtu,18.48,82.49,2627,12524
Andhra Pradesh,Adalputtu,18.37,82.49,3349,11772
Andhra Pradesh,Adamilli,16.95,81.19,249,31553
Andhra Pradesh,Adampur,18.18,77.63,1669,19913
Andhra Pradesh,Adanagūda,18.95,83.73,892,12023
Andhra Pradesh,Adanampeta,18.36,83.70,121,47813
Andhra Pradesh,Adapaka,18.27,83.74,55,51485
Andhra Pradesh,Adapaput,18.13,82.54,3707,12291
Andhra Pradesh,Adaparayi,18.55,83.09,1735,26660
Andhra Pradesh,Adaparāigondi,17.92,82.32,3441,8829
Andhra Pradesh,Adapavalasa,18.35,82.81,3349,14591
Andhra Pradesh,Adaramettu,18.11,82.68,2916,18757
Andhra Pradesh,Adarimulangavalasa,18.72,83.22,830,44428
Andhra Pradesh,Adarlodi,18.42,82.46,2509,11785
Andhra Pradesh,Adarrvalasa,18.42,83.21,1715,29912
Andhra Pradesh,Adaru,18.32,83.07,2788,9371
Andhra Pradesh,Adavala,15.89,80.69,19,24709
Andhra Pradesh,Adavaram,18.53,83.76,124,49574
Andhra Pradesh,Adavi Agraharam,17.89,82.90,223,44990
Andhra Pradesh,Adavi Kottūru,18.72,83.91,190,34630
Andhra Pradesh,Adavi Sārangapur,19.10,78.66,882,13092
Andhra Pradesh,Adavigollapalle,14.49,77.03,1801,40571
Andhra Pradesh,Adavigollapalle,14.48,77.02,1788,57577
Andhra Pradesh,Adavikamayya Agraharam,17.58,82.51,400,30706
Andhra Pradesh,Adavikolanu,16.71,81.41,62,50713
Andhra Pradesh,Adavinekkalam,16.63,80.72,134,29424
Andhra Pradesh,Adavivaram,17.77,83.25,1030,88875
Andhra Pradesh,Adda Gattulu,17.32,78.28,1876,31638
Andhra Pradesh,Addabata,17.91,79.18,1669,27420
Andhra Pradesh,Addabhangi,19.08,83.60,2509,18287
Andhra Pradesh,Addagūdem,18.70,83.13,2509,32391
Andhra Pradesh,Addakonda,15.35,77.56,1683,19730
Andhra Pradesh,Addakulaguda,18.64,83.80,830,28316
Andhra Pradesh,Addalova,17.70,82.52,830,22413
Andhra Pradesh,Addangi,18.67,83.86,1883,25315
Andhra Pradesh,Addanguda,19.00,83.70,830,13004
Andhra Pradesh,Addanki,15.81,79.97,111,44407
Andhra Pradesh,Addarivalasa,17.77,81.77,1837,2500
Andhra Pradesh,Addasaram,17.76,82.67,272,40096
Andhra Pradesh,Addatiga,18.21,83.17,232,22783
Andhra Pradesh,Addatige,18.13,82.89,2509,10426
Andhra Pradesh,Addatīgala,17.48,82.02,830,9152
Andhra Pradesh,Addepalli,14.14,80.07,6,22932
Andhra Pradesh,Adderu,18.21,82.53,4189,12665
Andhra Pradesh,Addesar,19.46,79.00,1000,9621
Andhra Pradesh,Addumanda,18.64,83.29,830,49168
Andhra Pradesh,Addumanda,18.63,83.29,830,50088
Andhra Pradesh,Adduruvalasa,18.79,83.37,830,64569
Andhra Pradesh,Addāda,16.36,80.99,22,77192
Andhra Pradesh,Addāgūdur,17.40,79.37,830,28299
Andhra Pradesh,Addākal,16.51,77.93,1210,29493
Andhra Pradesh,Addām,17.65,82.84,95,41556
Andhra Pradesh,Addāpusīla,18.76,83.45,830,70695
Andhra Pradesh,Addūru,17.82,83.02,830,50885
Andhra Pradesh,Addūruvāndlapālem,17.92,83.18,223,53895
Andhra Pradesh,Adegaon,19.42,78.44,1669,15863
Andhra Pradesh,Adegaon Khurd,19.43,78.44,1669,16429
Andhra Pradesh,Adepapalle,13.80,77.70,2509,100642
Andhra Pradesh,Adgimet,17.41,78.51,1669,2122892
Andhra Pradesh,Adibatla,17.23,78.54,1794,90594
Andhra Pradesh,Adigoppula,16.44,79.62,830,24121
Andhra Pradesh,Adigānipalle,14.75,77.04,1669,23106
Andhra Pradesh,Adilabad,19.67,78.53,843,108145
Andhra Pradesh,Adilābād,17.42,78.71,1669,67092
Andhra Pradesh,Adipudi,15.91,80.26,26,33205
Andhra Pradesh,Adireddivānipālem,17.81,83.13,85,43485
Andhra Pradesh,Adiur,18.36,78.34,1679,97528
Andhra Pradesh,Adivarampeta,18.32,83.90,49,197789
Andhra Pradesh,Adividipālem,15.72,80.28,19,26626
Andhra Pradesh,Adiyi Masjid,17.70,78.68,1909,27885
Andhra Pradesh,Adkalpalli,17.71,77.78,1843,25600
Andhra Pradesh,Adkaspalli,18.51,77.82,1223,27219
Andhra Pradesh,Adlapalli,18.74,79.97,416,6538
Andhra Pradesh,Adlonibhāvi,17.31,79.30,830,27833
Andhra Pradesh,Adlur,17.27,79.39,830,27413
Andhra Pradesh,Adlāpur,17.80,78.38,1814,27709
Andhra Pradesh,Adlūr,16.68,79.98,88,17808
Andhra Pradesh,Admi,19.63,78.88,1669,14060
Andhra Pradesh,Adolu,18.00,82.65,3349,14137
Andhra Pradesh,Adrala,18.66,79.58,830,74281
Andhra Pradesh,Adraspalli,17.62,78.66,1778,35311
Andhra Pradesh,Adrial,16.32,78.36,1669,23320
Andhra Pradesh,Aduamunda,18.11,82.70,3349,18740
Andhra Pradesh,Adupalimetta,17.87,81.89,3385,3278
Andhra Pradesh,Adusumalli,16.02,80.31,22,36072
Andhra Pradesh,Advi Devalpalli,16.66,79.51,219,22683
Andhra Pradesh,Advibhavigudem,17.25,79.40,830,34250
Andhra Pradesh,Advibolāram,17.20,79.40,830,42163
Andhra Pradesh,Advikeshavapuram,17.83,79.14,1669,27800
Andhra Pradesh,Adwi Lingāl,18.23,78.03,1669,27750
Andhra Pradesh,Adwi Masjid,17.70,78.68,1909,27885
Andhra Pradesh,Adwi Somanapalli,18.62,79.81,830,5561
Andhra Pradesh,Adwi Srīrāmpur,18.50,79.65,830,23224
Andhra Pradesh,Adāru,18.63,83.66,236,67256
Andhra Pradesh,Adārupādu,18.43,83.05,1686,19147
Andhra Pradesh,Affendi Farm,18.55,77.93,1669,51188
Andhra Pradesh,Afzal Nawaz Bagh,17.26,78.69,1669,39827
Andhra Pradesh,Afzalganj,17.38,78.48,1669,3085435
Andhra Pradesh,Agadallanka,16.71,81.27,124,54916
Andhra Pradesh,Agali,13.78,77.05,2509,72612
Andhra Pradesh,Agapet,17.48,79.71,915,36197
Andhra Pradesh,Agarampeta,18.03,79.70,977,51789
Andhra Pradesh,Agarguda,19.24,79.83,830,8372
Andhra Pradesh,Agarguda,19.24,79.82,830,8430
Andhra Pradesh,Agarmiyaguda,17.15,78.53,1906,25260
Andhra Pradesh,Agarrapalli,17.74,78.53,2014,33310
Andhra Pradesh,Agartipalem,16.49,81.68,16,206111
Andhra Pradesh,Agarwāda,19.48,79.11,1007,6258
Andhra Pradesh,Agasaladinne,15.81,77.08,1164,73348
Andhra Pradesh,Agasanūru,15.95,77.21,1079,352944
Andhra Pradesh,Agemalla,18.76,79.05,830,36138
Andhra Pradesh,Agemalla,18.76,79.06,830,36144
Andhra Pradesh,Aghapalli,17.14,78.67,1916,22339
Andhra Pradesh,Aginiparru,16.27,80.88,59,33810
Andhra Pradesh,Aginiparru,16.38,80.87,19,153525
Andhra Pradesh,Aginiparru Madigegudem,16.28,80.88,55,38131
Andhra Pradesh,Aginiparru Malepalle,16.28,80.89,55,36378
Andhra Pradesh,Agmatkur,17.04,79.50,830,25779
Andhra Pradesh,Agnigundala,16.18,79.74,344,18994
Andhra Pradesh,Agopalli,18.21,78.12,1669,24500
Andhra Pradesh,Agotpalli,18.63,79.97,416,11410
Andhra Pradesh,Agrahar,17.79,78.51,1827,38062
Andhra Pradesh,Agrahar,17.99,78.38,1669,35334
Andhra Pradesh,Agraharam,18.33,84.12,68,30980
Andhra Pradesh,Agraharam,17.83,82.86,203,40338
Andhra Pradesh,Agraharam,17.12,79.36,830,39171
Andhra Pradesh,Agraharam,17.76,82.37,830,7169
Andhra Pradesh,Agraharam,17.27,82.45,49,56217
Andhra Pradesh,Agraharam,17.18,80.69,377,25819
Andhra Pradesh,Agraharam,18.57,83.97,82,43177
Andhra Pradesh,Agraharam,15.58,80.12,19,40888
Andhra Pradesh,Agraharam,15.27,80.02,42,70182
Andhra Pradesh,Agraharam,16.25,79.97,219,69738
Andhra Pradesh,Agraharam,13.88,77.09,2509,79155
Andhra Pradesh,Agraharam,15.46,77.47,1669,25952
Andhra Pradesh,Agrahāra,14.14,76.91,2014,313847
Andhra Pradesh,Agrahāram,16.93,78.01,1965,27552
Andhra Pradesh,Agrahāram,17.33,81.63,42,10360
Andhra Pradesh,Agrahāram,16.59,81.49,19,105910
Andhra Pradesh,Agrahāram,16.49,81.27,32,43772
Andhra Pradesh,Agrahāram,17.32,82.52,85,82874
Andhra Pradesh,Agrahāram,17.57,82.85,52,70815
Andhra Pradesh,Agrahāram,18.20,83.73,52,44077
Andhra Pradesh,Agrahāram,17.10,81.17,305,26725
Andhra Pradesh,Agrahāram,15.47,80.06,19,122594
Andhra Pradesh,Agrahāram,14.25,77.95,1669,16435
Andhra Pradesh,Agrahāram,15.37,77.21,1669,17394
Andhra Pradesh,Agrahāram,18.22,79.34,971,47785
Andhra Pradesh,Agrahārampalle,13.88,77.40,2034,79949
Andhra Pradesh,Ahmadgūda,17.50,78.62,1669,232482
Andhra Pradesh,Ahmadipur,17.93,78.72,1709,33233
Andhra Pradesh,Ahmadpur,17.31,78.99,1089,27130
Andhra Pradesh,Ahobalāchāryulupeta,18.48,83.86,127,38988
Andhra Pradesh,Ahobilam,15.12,78.74,1784,17529
Andhra Pradesh,Aiavarpalli,18.47,78.90,1040,53735
Andhra Pradesh,Aibhimavaram,16.56,81.37,3,75352
Andhra Pradesh,Aidasapalli,18.82,79.73,830,14056
Andhra Pradesh,Aiiamari,17.82,78.11,1669,39578
Andhra Pradesh,Ailakuntābhāvi,17.52,79.15,1017,24403
Andhra Pradesh,Ailapuram,18.85,78.12,1148,36801
Andhra Pradesh,Ailipur,18.66,79.89,830,13266
Andhra Pradesh,Ailwānpalle,17.09,77.59,1906,24801
Andhra Pradesh,Ailūru,16.26,80.83,55,18715
Andhra Pradesh,Aima Tanda,17.54,77.94,1843,32831
Andhra Pradesh,Ainada,17.98,82.83,374,26332
Andhra Pradesh,Ainampudi,16.30,80.91,36,51632
Andhra Pradesh,Ainampūdi,16.35,80.99,22,79822
Andhra Pradesh,Ainapalli,17.89,79.92,830,40386
Andhra Pradesh,Ainavolu,15.99,79.67,226,24896
Andhra Pradesh,Ainavolu,16.49,80.50,26,48046
Andhra Pradesh,Ainkampet,18.68,79.90,830,12002
Andhra Pradesh,Ainkampet,18.39,78.80,1066,59187
Andhra Pradesh,Ainkapur,19.59,78.57,997,31330
Andhra Pradesh,Ainol,16.45,78.76,1669,14730
Andhra Pradesh,Aināpur,16.47,77.28,1141,16716
Andhra Pradesh,Aipet,19.33,78.63,994,14023
Andhra Pradesh,Airanbanda,15.68,77.59,1213,27998
Andhra Pradesh,Airnagallu,15.90,77.26,1112,43121
Andhra Pradesh,Aitampudi,17.78,82.86,157,38852
Andhra Pradesh,Aitol,16.61,78.35,1669,21911
Andhra Pradesh,Aitpamla,17.17,79.36,830,36846
Andhra Pradesh,Aitāpalli,18.66,79.03,997,40664
Andhra Pradesh,Aitāvarpet,18.64,79.92,830,13387
Andhra Pradesh,Aivārpalli,16.82,77.82,1669,29448
Andhra Pradesh,Aivārpalli,16.78,77.99,1758,123943
Andhra Pradesh,Aiyapalli,18.21,78.12,1669,24500
Andhra Pradesh,Aiyavarupalli,18.18,78.45,1699,44549
Andhra Pradesh,Ajalapur,16.89,78.00,1961,27537
Andhra Pradesh,Ajalāpur,16.69,77.80,1669,29263
Andhra Pradesh,Ajalāpur,16.88,79.21,830,20848
Andhra Pradesh,Ajhar Wajhar,19.42,78.21,1801,16147
Andhra Pradesh,Ajilapur,16.63,77.88,1669,23904
Andhra Pradesh,Ajimpet,17.36,79.35,830,26961
Andhra Pradesh,Ajjamūru,16.58,81.40,3,81417
Andhra Pradesh,Ajjaram,16.77,81.74,39,149786
Andhra Pradesh,Ajjaram,18.21,83.83,78,48670
Andhra Pradesh,Ajjayyadoddi,14.58,76.91,1669,21227
Andhra Pradesh,Ajlapuram,16.98,78.80,1669,19558
Andhra Pradesh,Ajoiapuram,17.96,79.50,997,44884
Andhra Pradesh,Ajuru,18.55,83.11,1932,28022
Andhra Pradesh,Akalur,18.72,78.41,1118,39468
Andhra Pradesh,Akampalli,18.11,78.07,1669,25331
Andhra Pradesh,Akanapet,18.11,78.40,1814,34427
Andhra Pradesh,Akanavāritota,16.41,81.64,6,112113
Andhra Pradesh,Akannāpalli,17.26,78.21,1814,25441
Andhra Pradesh,Akantapet,19.13,78.85,830,8860
Andhra Pradesh,Akanur,18.18,79.28,990,36268
Andhra Pradesh,Akarajapalle,18.01,82.51,3658,10748
Andhra Pradesh,Akaram,17.82,78.74,1774,37189
Andhra Pradesh,Akaram,17.27,79.35,830,27096
Andhra Pradesh,Akasahevpet,17.50,82.57,196,33706
Andhra Pradesh,Akayapālem,17.69,82.47,410,19981
Andhra Pradesh,Akbarjapet,17.64,78.55,1961,52301
Andhra Pradesh,Akbarnagar,18.56,77.88,1669,50503
Andhra Pradesh,Akbarpet,18.13,78.60,1669,34396
Andhra Pradesh,Akbarpura,17.40,78.42,1669,1676152
Andhra Pradesh,Akenapalli,17.09,78.39,2509,25689
Andhra Pradesh,Akhayapalem,15.79,80.34,16,126490
Andhra Pradesh,Akhārjapet,17.64,78.55,1961,52301
Andhra Pradesh,Akhīmkhānudupeta,18.27,83.86,65,127431
Andhra Pradesh,Akivīdu,16.58,81.38,3,78344
Andhra Pradesh,Akjangi,18.11,82.42,3349,11887
Andhra Pradesh,Akkabanipalli,16.23,78.16,1669,23131
Andhra Pradesh,Akkacheruvu Tānda,17.08,77.68,1843,31127
Andhra Pradesh,Akkagaladevarahalli,13.83,77.07,2509,56921
Andhra Pradesh,Akkalagudem,17.03,79.26,1181,84851
Andhra Pradesh,Akkalaigūdem,17.20,79.34,830,31904
Andhra Pradesh,Akkalched,17.89,79.86,830,59987
Andhra Pradesh,Akkaldevigūdem,17.16,79.71,958,32927
Andhra Pradesh,Akkammanahalli,13.95,77.43,1925,49052
Andhra Pradesh,Akkampalle,17.18,77.58,1669,18101
Andhra Pradesh,Akkampalle,14.69,77.54,1151,127132
Andhra Pradesh,Akkampalle,14.29,77.55,1669,16158
Andhra Pradesh,Akkampalle,13.93,77.25,2509,64677
Andhra Pradesh,Akkampalle,13.92,77.49,1978,53919
Andhra Pradesh,Akkampalli,16.70,79.11,830,19365
Andhra Pradesh,Akkampet,18.01,79.70,977,58673
Andhra Pradesh,Akkampeta,17.16,81.28,370,31861
Andhra Pradesh,Akkanna Agrahāram,18.52,83.75,144,48442
Andhra Pradesh,Akkannapalli,18.08,79.07,1223,29663
Andhra Pradesh,Akkannapet,18.03,79.21,1184,33783
Andhra Pradesh,Akkapalli,18.42,78.69,1669,26011
Andhra Pradesh,Akkapalli,18.87,79.70,830,12714
Andhra Pradesh,Akkapalli,18.65,79.60,830,45690
Andhra Pradesh,Akkapalligudem,17.77,79.36,1669,32262
Andhra Pradesh,Akkapuram,18.37,78.49,1669,25377
Andhra Pradesh,Akkapālem,17.13,80.58,278,42917
Andhra Pradesh,Akkarajupalli,17.92,79.16,1669,26980
Andhra Pradesh,Akkarapalle,18.62,83.97,111,35966
Andhra Pradesh,Akkarājupeta,18.67,83.73,984,29480
Andhra Pradesh,Akkarāpalle,18.46,83.77,52,50163
Andhra Pradesh,Akkayyapalem,18.10,83.65,59,33602
Andhra Pradesh,Akkenapalli,17.29,79.24,830,29480
Andhra Pradesh,Akkepalli,18.88,79.82,400,11006
Andhra Pradesh,Akkikonetuvalasa,18.59,83.32,830,69805
Andhra Pradesh,Akkireddigudem,16.88,80.90,272,31802
Andhra Pradesh,Akkireddigūdem,16.80,81.15,183,36276
Andhra Pradesh,Akkireddipalem,15.59,80.21,16,24988
Andhra Pradesh,Akkireddipālem,17.84,83.23,134,60168
Andhra Pradesh,Akkivalasa,18.27,83.78,68,53772
Andhra Pradesh,Akkivalasa,18.40,83.91,85,104979
Andhra Pradesh,Akkivaram,18.38,84.14,59,38286
Andhra Pradesh,Akkivaram,18.02,83.47,114,44234
Andhra Pradesh,Akkivaram,18.34,83.88,39,163145
Andhra Pradesh,Akkiwaniguda,17.19,78.29,1847,24084
Andhra Pradesh,Akkulapeta,18.45,83.87,141,70503
Andhra Pradesh,Akkupalle Gokavaram,16.84,81.35,180,36935
Andhra Pradesh,Akkurāda,18.52,84.00,104,48140
Andhra Pradesh,Akkuvaram,18.38,84.14,59,38286
Andhra Pradesh,Akkājampalle,15.08,78.00,1207,20960
Andhra Pradesh,Akkāwaram,18.19,78.60,1669,36706
Andhra Pradesh,Aklapalli,19.24,79.54,830,12633
Andhra Pradesh,Aklaspur,18.78,79.36,830,43637
Andhra Pradesh,Aklvidu,16.58,81.38,3,78344
Andhra Pradesh,Aknapalli,18.36,79.60,830,36259
Andhra Pradesh,Aknepalli,18.79,79.37,830,59101
Andhra Pradesh,Akoli,19.82,78.54,830,19165
Andhra Pradesh,Akoli,19.76,78.60,830,29418
Andhra Pradesh,Akravapalli,18.54,80.37,288,4931
Andhra Pradesh,Aksanpalli,17.82,77.98,1748,35692
Andhra Pradesh,Akulakatta,18.48,83.43,830,46319
Andhra Pradesh,Akulapeta,18.03,83.42,131,86090
Andhra Pradesh,Akulapeta,18.33,83.56,301,74372
Andhra Pradesh,Akulavāndlapalle,13.85,77.98,2509,43100
Andhra Pradesh,Akuledu,14.80,77.64,994,21505
Andhra Pradesh,Akulu Tampora,18.74,83.97,111,35374
Andhra Pradesh,Akuluru,17.95,82.18,2769,7707
Andhra Pradesh,Akuluru,17.60,81.53,830,3927
Andhra Pradesh,Akumamidikota,17.74,81.80,1876,2705
Andhra Pradesh,Akumarri Tanda,16.71,77.69,1755,37893
Andhra Pradesh,Akunpalli,17.09,78.39,2509,25689
Andhra Pradesh,Akunuru,16.39,80.82,19,99802
Andhra Pradesh,Akupāmla,17.01,79.90,830,48564
Andhra Pradesh,Akuru,17.47,81.60,1669,5938
Andhra Pradesh,Akutotapalle,14.62,77.63,1138,112652
Andhra Pradesh,Akutotapalli,16.64,78.80,1053,19411
Andhra Pradesh,Akāwāram,16.46,79.02,895,14212
Andhra Pradesh,Aladoddi,15.44,77.96,1669,20862
Andhra Pradesh,Alagadapalle,18.03,82.48,3595,11451
Andhra Pradesh,Alaganipadu,14.60,80.11,16,26678
Andhra Pradesh,Alagayapalem,15.14,80.05,16,23196
Andhra Pradesh,Alagūru,18.74,83.18,830,34361
Andhra Pradesh,Alajangi,18.54,83.40,269,60240
Andhra Pradesh,Alajangi,18.30,83.61,282,57568
Andhra Pradesh,Alakanarayanapuram,18.23,83.64,830,41566
Andhra Pradesh,Alakurpad,15.36,80.07,13,37729
Andhra Pradesh,Alamanda,17.99,83.24,137,56618
Andhra Pradesh,Alamanda,18.81,83.60,321,30498
Andhra Pradesh,Alamanda,17.93,83.00,226,39044
Andhra Pradesh,Alamandavalasa,18.60,83.10,1043,32719
Andhra Pradesh,Alamkhanpet,17.72,79.84,1000,42176
Andhra Pradesh,Alamkunta,18.62,79.83,830,8774
Andhra Pradesh,Alampalli,19.24,78.75,879,8995
Andhra Pradesh,Alampur,15.88,78.13,830,37146
Andhra Pradesh,Alangāpuram,16.78,79.75,229,29549
Andhra Pradesh,Alapadu,16.58,81.32,36,53417
Andhra Pradesh,Alapanahalli,13.79,77.15,2509,68329
Andhra Pradesh,Alaparti,18.19,83.18,232,26816
Andhra Pradesh,Alapur,17.46,78.41,1794,342699
Andhra Pradesh,Alardu,18.01,82.77,2509,18894
Andhra Pradesh,Alarupalle,15.79,80.31,16,109991
Andhra Pradesh,Alasandigutta,15.58,77.37,1669,37198
Andhra Pradesh,Alavadda,19.02,83.62,1669,17343
Andhra Pradesh,Alavala,16.18,79.89,226,37706
Andhra Pradesh,Alavala,15.79,77.63,1053,31430
Andhra Pradesh,Alavalapadu,15.33,79.67,170,14456
Andhra Pradesh,Alavalapādu,15.79,80.07,62,31814
Andhra Pradesh,Albaka,18.21,80.67,226,5262
Andhra Pradesh,Albiri,18.46,82.48,2769,12040
Andhra Pradesh,Alchipeta,18.14,83.45,252,128218
Andhra Pradesh,Aldapalli,19.18,79.68,830,11232
Andhra Pradesh,Aler,16.36,78.45,1669,24004
Andhra Pradesh,Algam,18.06,82.39,3349,12689
Andhra Pradesh,Alganuru,18.40,79.15,862,182289
Andhra Pradesh,Algulgūdem,16.76,81.15,134,109582
Andhra Pradesh,Algunur,17.33,79.75,830,31612
Andhra Pradesh,Ali Sahibguda,17.11,78.31,2011,31193
Andhra Pradesh,Aliabad,17.62,78.60,1817,61303
Andhra Pradesh,Aliabād,17.57,78.00,1745,39085
Andhra Pradesh,Aligūdem,17.07,79.33,830,55782
Andhra Pradesh,Aligūdem,17.23,81.11,830,13767
Andhra Pradesh,Alija Kotla,17.36,78.48,1669,2773966
Andhra Pradesh,Alijapur,17.39,78.39,1768,921242
Andhra Pradesh,Alikhanpalli,18.14,77.82,1669,28676
Andhra Pradesh,Alinagar,17.60,78.38,2011,143624
Andhra Pradesh,Alinagaram,18.26,83.79,72,52592
Andhra Pradesh,Alinagaram,17.71,78.70,1935,27428
Andhra Pradesh,Alipur,17.72,83.30,85,274038
Andhra Pradesh,Alipur,18.86,78.88,853,44352
Andhra Pradesh,Alipur,16.46,78.17,1669,31843
Andhra Pradesh,Alipur,18.24,78.92,1669,26520
Andhra Pradesh,Alipur,18.50,79.39,843,37608
Andhra Pradesh,Alipur,17.84,78.33,1738,27454
Andhra Pradesh,Alipuram,19.03,79.11,830,20080
Andhra Pradesh,Alipuri,18.86,78.88,853,44352
Andhra Pradesh,Alirajapet,17.79,78.78,1820,27414
Andhra Pradesh,Alirājāpalli,17.80,78.77,1827,28997
Andhra Pradesh,Alivar,18.07,82.71,4189,18840
Andhra Pradesh,Aliveru,17.29,81.35,830,12367
Andhra Pradesh,Aliyābād,18.40,79.38,948,42324
Andhra Pradesh,Aliyābād,18.16,79.70,918,56337
Andhra Pradesh,Aliābād,17.76,79.49,1000,35438
Andhra Pradesh,Aliābād,17.35,78.47,1679,2451287
Andhra Pradesh,Aliāpur,17.20,79.63,839,50361
Andhra Pradesh,Aljahdurg,17.97,77.93,1669,35676
Andhra Pradesh,Allahdurg,17.97,77.93,1669,35676
Andhra Pradesh,Allahdurug,17.97,77.93,1669,35676
Andhra Pradesh,Allahpur,17.40,78.58,1669,239444
Andhra Pradesh,Allalpalli,16.64,78.26,1669,20490
Andhra Pradesh,Allamcherla,17.05,81.13,410,23520
Andhra Pradesh,Allamput,18.18,82.62,3349,15303
Andhra Pradesh,Allamput,18.20,82.69,3349,17147
Andhra Pradesh,Allamputvalasa,18.09,82.85,3349,13730
Andhra Pradesh,Allampādu,14.04,80.09,19,30139
Andhra Pradesh,Allapalle,13.98,77.93,2060,32752
Andhra Pradesh,Allapalli,17.83,80.48,830,2682
Andhra Pradesh,Allapur,18.07,77.71,1692,34359
Andhra Pradesh,Allapur,18.29,77.79,1669,28242
Andhra Pradesh,Allapur,16.54,78.42,1669,25259
Andhra Pradesh,Allapuram,14.34,77.01,1893,23188
Andhra Pradesh,Allapādu,17.00,80.31,177,32752
Andhra Pradesh,Allarājubāvigūdem,16.94,79.05,843,29315
Andhra Pradesh,Allavada,17.26,78.13,1935,25008
Andhra Pradesh,Allena,18.55,83.78,127,50240
Andhra Pradesh,Alligaru,18.00,82.92,360,16972
Andhra Pradesh,Alligudem,17.63,80.96,180,11059
Andhra Pradesh,Alligudem,17.80,81.17,285,4339
Andhra Pradesh,Alliguntapalem,14.92,80.03,22,69071
Andhra Pradesh,Allimadugu,14.77,80.04,29,42059
Andhra Pradesh,Allinagar,16.94,80.32,196,43699
Andhra Pradesh,Allinagaram,15.65,77.90,990,32185
Andhra Pradesh,Allipalle,17.19,80.99,830,20792
Andhra Pradesh,Allipudi,17.50,82.47,137,28958
Andhra Pradesh,Allipuram,16.81,79.83,288,34897
Andhra Pradesh,Allipuram,14.46,80.04,39,203733
Andhra Pradesh,Allivalasa,18.12,83.74,3,21910
Andhra Pradesh,Allu Pālteru,18.53,83.42,259,52782
Andhra Pradesh,Alluduvalasa,18.50,83.42,331,46439
Andhra Pradesh,Allugundam,15.60,77.94,1072,33152
Andhra Pradesh,Allur,14.68,80.05,16,41641
Andhra Pradesh,Allur,18.81,78.20,1184,31046
Andhra Pradesh,Alluru,15.45,80.12,6,50025
Andhra Pradesh,Alluru,18.44,83.10,1145,22212
Andhra Pradesh,Allurukota,17.85,81.93,2043,3700
Andhra Pradesh,Alluvada,18.94,83.44,830,24009
Andhra Pradesh,Alluvada,18.83,83.55,269,34165
Andhra Pradesh,Allāda,18.48,83.97,26,61913
Andhra Pradesh,Allādapeta,18.49,83.98,29,60151
Andhra Pradesh,Allādapālem,18.13,83.62,75,38932
Andhra Pradesh,Allāhdrug,17.97,77.93,1669,35676
Andhra Pradesh,Allāhpur,17.21,78.83,1669,28281
Andhra Pradesh,Allāhpur,17.74,77.87,1719,25419
Andhra Pradesh,Allāhpuram,17.81,78.49,1765,39486
Andhra Pradesh,Allāhsāgar,18.67,79.85,830,12406
Andhra Pradesh,Allīkhānudupālem,17.76,82.98,121,101059
Andhra Pradesh,Allūrivāripālem,16.23,80.01,196,120711
Andhra Pradesh,Allūru,14.68,80.05,16,41641
Andhra Pradesh,Allūru,16.77,80.44,134,34705
Andhra Pradesh,Allūru,15.93,80.63,29,38921
Andhra Pradesh,Almaipet,17.78,78.09,1669,36716
Andhra Pradesh,Almajipeta,18.35,83.83,75,77762
Andhra Pradesh,Almajipeta,18.45,83.95,22,82000
Andhra Pradesh,Almasguda,17.31,78.53,1709,501269
Andhra Pradesh,Almaspur,18.14,78.00,1669,12955
Andhra Pradesh,Almaspur,18.43,78.66,1669,25634
Andhra Pradesh,Almaspur,18.04,78.59,1696,31100
Andhra Pradesh,Almaspuram,17.26,78.85,1669,30611
Andhra Pradesh,Alnār,19.05,81.67,2509,14304
Andhra Pradesh,Altivāram,18.16,83.55,252,39359
Andhra Pradesh,Alugaurammapeta,17.74,82.58,341,35139
Andhra Pradesh,Alugolu,18.20,83.55,134,39967
Andhra Pradesh,Alugumallipādu,16.57,79.73,255,37446
Andhra Pradesh,Aluguru,17.98,82.80,2509,21929
Andhra Pradesh,Alugurājupalle,16.48,79.35,830,29333
Andhra Pradesh,Alur,17.55,78.08,1768,55501
Andhra Pradesh,Alur,18.68,79.53,830,126583
Andhra Pradesh,Alurupadureddipalem,14.56,80.02,26,76260
Andhra Pradesh,Alvapuram,18.81,78.08,1151,40508
Andhra Pradesh,Alvāl,16.75,79.29,830,23319
Andhra Pradesh,Alwal,16.99,78.34,1945,24904
Andhra Pradesh,Alwāl,16.45,78.02,1246,26567
Andhra Pradesh,Alwāl,18.04,78.68,1669,30446
Andhra Pradesh,Alwāl,17.50,78.50,1843,368441
Andhra Pradesh,Alwāpuram,17.00,79.99,301,66173
Andhra Pradesh,Alīguda,17.26,78.44,1938,187151
Andhra Pradesh,Alīkhānpalle,17.03,77.69,1709,33796
Andhra Pradesh,Alīkām,18.38,83.94,49,123759
Andhra Pradesh,Alīnagar,17.38,78.78,1669,25040
Andhra Pradesh,Alūru,15.50,80.13,16,77520
Andhra Pradesh,Amadaguntla,15.70,77.87,1099,28467
Andhra Pradesh,Amadalagudem,17.81,81.26,259,4643
Andhra Pradesh,Amadalapadu,16.00,77.92,984,13848
Andhra Pradesh,Amakapeta,18.87,78.58,1053,45536
Andhra Pradesh,Amakatadu,15.50,77.88,1174,16286
Andhra Pradesh,Amakām,18.04,83.43,147,128181
Andhra Pradesh,Amalapuram,17.36,82.68,32,39567
Andhra Pradesh,Amalladinne,14.89,77.90,830,22660
Andhra Pradesh,Amalāpuram,16.58,82.01,9,183695
Andhra Pradesh,Amalāpuram,17.58,82.59,206,26872
Andhra Pradesh,Amanagurti,18.17,79.36,994,45207
Andhra Pradesh,Amangal,17.06,79.57,830,39696
Andhra Pradesh,Amanizammalamadaka,16.51,79.44,830,71376
Andhra Pradesh,Amarangābād,16.99,81.74,3,384708
Andhra Pradesh,Amarapallipālem,17.77,83.14,154,82301
Andhra Pradesh,Amarapur,14.13,76.98,2004,311626
Andhra Pradesh,Amarapuuram,14.13,76.98,2004,311626
Andhra Pradesh,Amaravaram,16.83,79.82,282,44047
Andhra Pradesh,Amaravaram,17.60,81.01,137,13310
Andhra Pradesh,Amaravayi,15.96,77.93,951,12396
Andhra Pradesh,Amarayavalasa Agraharam,18.34,83.26,830,39847
Andhra Pradesh,Amarchinta,16.37,77.77,1040,33286
Andhra Pradesh,Amargonda,19.23,79.82,830,8783
Andhra Pradesh,Amarlabanda,18.37,78.23,1856,25246
Andhra Pradesh,Amarwāli,18.92,79.47,830,116301
Andhra Pradesh,Amarām,18.49,83.61,216,59945
Andhra Pradesh,Amarāpuram,14.13,76.98,2004,311626
Andhra Pradesh,Amarāvati,16.58,80.36,55,43762
Andhra Pradesh,Amarāvati,16.50,81.33,3,44241
Andhra Pradesh,Amasi,19.06,83.60,2509,18353
Andhra Pradesh,Amatkur,16.34,77.81,961,34909
Andhra Pradesh,Ambada,18.54,83.68,203,54087
Andhra Pradesh,Ambadipūdi,16.62,80.17,75,28790
Andhra Pradesh,Ambagutta,19.49,79.83,830,12164
Andhra Pradesh,Ambagutta,19.38,79.87,830,7152
Andhra Pradesh,Ambajipet,17.99,78.39,1669,36068
Andhra Pradesh,Ambakhandi,18.50,83.73,170,50038
Andhra Pradesh,Ambal,18.14,79.56,830,46827
Andhra Pradesh,Ambala,17.49,79.24,935,24550
Andhra Pradesh,Ambalagandi,18.73,83.68,1669,8466
Andhra Pradesh,Ambam,18.70,77.93,1141,69328
Andhra Pradesh,Ambam Ranjal Penta Farm,18.70,77.95,1164,56307
Andhra Pradesh,Ambanatapalli,18.69,80.08,344,6478
Andhra Pradesh,Ambapoda,18.29,82.49,3622,12255
Andhra Pradesh,Ambapuram,16.57,80.63,26,672173
Andhra Pradesh,Ambapuram,16.56,79.68,311,34655
Andhra Pradesh,Ambaripeta,18.66,78.71,1669,29443
Andhra Pradesh,Ambarpet,18.27,78.50,1669,35215
Andhra Pradesh,Ambarpet,17.39,78.52,1669,2177192
Andhra Pradesh,Ambarpet,17.78,78.57,1883,31509
Andhra Pradesh,Ambarpet,17.21,77.61,1669,23577
Andhra Pradesh,Ambarpet,16.92,80.39,170,55318
Andhra Pradesh,Ambarpet,18.80,79.19,830,35593
Andhra Pradesh,Ambarpet Kalan,17.32,78.64,1669,46687
Andhra Pradesh,Ambarpeta,18.78,78.88,954,98920
Andhra Pradesh,Ambatavalasa,18.07,83.38,209,232850
Andhra Pradesh,Ambatigondi,17.90,81.93,3349,3278
Andhra Pradesh,Ambatipeta,18.29,83.96,39,135610
Andhra Pradesh,Ambativalasa,18.19,83.37,328,63824
Andhra Pradesh,Ambativalasapālem,18.16,83.13,367,31730
Andhra Pradesh,Ambativanigudem,16.63,78.92,905,27288
Andhra Pradesh,Ambativāripālem,15.89,80.17,22,40688
Andhra Pradesh,Ambatpalli,16.28,78.44,1256,21200
Andhra Pradesh,Ambatāpuram,16.85,78.10,1824,26172
Andhra Pradesh,Ambavalli,18.63,83.96,85,35670
Andhra Pradesh,Ambekanti,19.16,78.12,1669,17686
Andhra Pradesh,Ambem,18.55,77.86,1246,44934
Andhra Pradesh,Amberpet,17.32,79.41,830,26405
Andhra Pradesh,Amberupuram,17.81,82.97,147,92775
Andhra Pradesh,Ambhavi,17.31,79.00,1089,26985
Andhra Pradesh,Ambhāvi,17.16,79.07,902,27671
Andhra Pradesh,Ambilikera,13.89,77.03,2509,100592
Andhra Pradesh,Ambiri,18.19,82.38,3349,11579
Andhra Pradesh,Ambojābogda,17.92,77.86,1784,30584
Andhra Pradesh,Ambotalagūdem,17.59,81.05,177,13457
Andhra Pradesh,Ambotu Tanda,16.74,78.94,895,34888
Andhra Pradesh,Ambugaon,19.71,78.39,1053,20983
Andhra Pradesh,Ambādipūdi,15.97,80.01,167,37470
Andhra Pradesh,Ambājipeta,18.41,83.96,42,94509
Andhra Pradesh,Ambālapuram,18.29,79.28,974,42424
Andhra Pradesh,Ambāpuram,14.87,76.97,1669,19188
Andhra Pradesh,Ambārpeta,16.82,81.30,183,37877
Andhra Pradesh,Amdelu,18.16,82.45,3349,12400
Andhra Pradesh,Amdāpur,17.28,78.29,1725,22508
Andhra Pradesh,Amdāpuram,17.28,78.29,1725,22508
Andhra Pradesh,Amdāpuram,18.87,78.26,1089,38624
Andhra Pradesh,Amdūr,17.63,78.25,1669,32146
Andhra Pradesh,Amegondapālem,14.11,77.87,2509,27612
Andhra Pradesh,Amidipur,16.66,77.44,1223,21911
Andhra Pradesh,Amidāla,14.27,77.75,1669,19905
Andhra Pradesh,Amidālavalasa,18.55,83.72,190,62779
Andhra Pradesh,Amilkunta,16.92,77.72,1669,37970
Andhra Pradesh,Aminabad,17.83,79.84,830,47494
Andhra Pradesh,Aminbada,17.48,82.19,830,9089
Andhra Pradesh,Amingudem,19.22,79.40,830,13979
Andhra Pradesh,Aminpur,17.52,78.32,1768,124501
Andhra Pradesh,Amirekula,17.57,82.31,1893,13531
Andhra Pradesh,Amirguda,17.33,78.26,1925,29591
Andhra Pradesh,Amirnagar,18.73,78.55,1669,31428
Andhra Pradesh,Amirpet,17.43,78.45,1669,1495959
Andhra Pradesh,Amiti,18.98,83.61,830,16033
Andhra Pradesh,Amiti,18.50,83.53,252,45946
Andhra Pradesh,Amitijhola,18.91,83.75,1164,13395
Andhra Pradesh,Amjāpur,17.30,78.59,1683,115588
Andhra Pradesh,Amlur,16.86,79.13,830,17582
Andhra Pradesh,Ammagari Dharakonda,17.97,82.21,2509,7688
Andhra Pradesh,Ammagaripeta,14.70,77.66,1082,26373
Andhra Pradesh,Ammagarupalle,17.86,80.87,111,39118
Andhra Pradesh,Ammagudem,16.93,79.22,830,22235
Andhra Pradesh,Ammalapadu,18.64,84.40,39,23535
Andhra Pradesh,Ammanabrole,15.58,80.15,22,38120
Andhra Pradesh,Ammanabrolu,15.58,80.15,22,38120
Andhra Pradesh,Ammanbol,17.58,79.13,1049,32022
Andhra Pradesh,Ammanbole,17.35,79.27,830,27561
Andhra Pradesh,Ammapalem,16.72,81.03,78,59362
Andhra Pradesh,Ammapalem,17.08,80.77,830,30033
Andhra Pradesh,Ammapalem,17.05,81.27,252,42297
Andhra Pradesh,Ammapalli,16.43,77.48,1085,15785
Andhra Pradesh,Ammapalli,16.68,78.26,1669,19642
Andhra Pradesh,Ammapeta,17.60,81.92,1181,3278
Andhra Pradesh,Ammapeta,17.66,82.45,360,24260
Andhra Pradesh,Ammapur,17.62,79.68,931,38161
Andhra Pradesh,Ammapuram,16.94,78.05,1935,25892
Andhra Pradesh,Ammapuram,17.91,79.13,1669,26576
Andhra Pradesh,Ammapālem,18.18,83.12,396,19709
Andhra Pradesh,Ammapālem,17.21,81.42,406,18069
Andhra Pradesh,Ammarapet,19.09,78.82,830,8199
Andhra Pradesh,Ammareddipalem,16.97,80.50,193,37105
Andhra Pradesh,Ammatvagu,17.15,79.31,869,36271
Andhra Pradesh,Ammavalasa,18.51,83.13,830,27842
Andhra Pradesh,Ammavāripālem,14.46,79.73,180,18495
Andhra Pradesh,Ammavārupalle,14.18,77.63,1669,17433
Andhra Pradesh,Ammawarpet,17.94,79.56,994,45134
Andhra Pradesh,Ammepalle,16.96,81.56,98,53993
Andhra Pradesh,Ammepalle,16.96,81.55,91,54054
Andhra Pradesh,Ammireddipalli,16.73,77.58,1669,37609
Andhra Pradesh,Ammulapālem,17.76,83.07,190,32779
Andhra Pradesh,Ammāipalli,16.07,78.14,990,20795
Andhra Pradesh,Ammāpalli,16.77,78.22,1669,34513
Andhra Pradesh,Ammāpur,16.44,77.83,1095,28886
Andhra Pradesh,Ammāpur,16.94,78.19,1811,29424
Andhra Pradesh,Amnrugūda,17.50,78.53,1856,366620
Andhra Pradesh,Ampalam,18.36,84.12,32,40665
Andhra Pradesh,Ampavilll,18.55,83.52,242,46953
Andhra Pradesh,Ampili,18.58,83.76,124,68735
Andhra Pradesh,Ampolu,18.32,83.98,62,81915
Andhra Pradesh,Ampur,18.11,82.64,3349,17514
Andhra Pradesh,Ampāda,17.44,82.34,351,25288
Andhra Pradesh,Amrabad,16.38,78.83,1938,3129
Andhra Pradesh,Amrabad,18.70,78.16,1240,86151
Andhra Pradesh,Amrabad,18.53,78.14,1669,85408
Andhra Pradesh,Amrabad,18.50,79.66,830,22501
Andhra Pradesh,Amrad Kalan,17.56,77.89,1919,33915
Andhra Pradesh,Amrad Khurd,17.57,77.88,1929,31192
Andhra Pradesh,Amratpur,18.64,78.19,1669,58315
Andhra Pradesh,Amritapuram,16.86,81.57,75,109580
Andhra Pradesh,Amritapuram,15.37,77.05,1249,41022
Andhra Pradesh,Amrutalingānagaram,18.55,83.92,108,39930
Andhra Pradesh,Amrutāpuram,17.78,83.14,49,68869
Andhra Pradesh,Amrīda,17.85,80.86,131,34988
Andhra Pradesh,Amsānpalle,17.11,77.71,1758,34777
Andhra Pradesh,Amsānpalli,17.94,78.24,1669,29509
Andhra Pradesh,Amudalabanda,17.39,81.89,403,11915
Andhra Pradesh,Amudalagondi,13.99,77.28,2509,32600
Andhra Pradesh,Amudalapalle,16.76,81.37,131,46961
Andhra Pradesh,Amudalapādu,14.35,80.10,19,26935
Andhra Pradesh,Amudalapālem,16.38,81.60,3,65143
Andhra Pradesh,Amudālavalasa,18.41,83.90,88,103917
Andhra Pradesh,Amudāpur,18.62,77.93,1207,84525
Andhra Pradesh,Amuluru,14.63,80.02,29,37114
Andhra Pradesh,Amur,18.21,82.66,3349,16193
Andhra Pradesh,Amīnbādu,15.29,77.57,1669,17847
Andhra Pradesh,Amīnpalle,15.18,77.49,1253,30299
Andhra Pradesh,Amīnpuram,16.31,80.85,59,41391
Andhra Pradesh,Amīnsāhibpālem,16.18,80.10,104,66493
Andhra Pradesh,Amīnābād,17.06,79.97,830,43890
Andhra Pradesh,Amīrekhala,17.42,82.26,1669,19383
Andhra Pradesh,Amīrpet,17.15,78.34,1961,26591
Andhra Pradesh,Anajpur,17.27,78.69,1669,40022
Andhra Pradesh,Anajpur,17.46,78.90,1246,40149
Andhra Pradesh,Anajpur,16.75,78.79,1085,20173
Andhra Pradesh,Anajpur,17.06,79.62,830,46883
Andhra Pradesh,Anajpuram,17.40,79.27,961,27226
Andhra Pradesh,Anakapalle,17.69,83.00,98,158473
Andhra Pradesh,Anamanapudi,16.50,81.07,32,37201
Andhra Pradesh,Anamasamudrampeta,14.69,79.68,177,14437
Andhra Pradesh,Anampatla,17.47,78.84,1669,28029
Andhra Pradesh,Anandapuram,19.06,78.73,830,8414
Andhra Pradesh,Anandapuram,16.54,81.14,49,45287
Andhra Pradesh,Anandapuram,18.37,83.75,42,52064
Andhra Pradesh,Anandaraopeta,14.88,77.73,918,16205
Andhra Pradesh,Anandlapalli,18.31,79.36,830,45657
Andhra Pradesh,Anantabhotlakhandrika,14.63,80.07,19,28364
Andhra Pradesh,Anantagiri,17.05,79.98,830,47005
Andhra Pradesh,Anantagiri,18.74,78.06,1204,102266
Andhra Pradesh,Anantagiri,18.26,78.91,1669,25643
Andhra Pradesh,Anantagiri,17.57,82.14,830,9280
Andhra Pradesh,Anantagiri,18.23,83.01,3349,8836
Andhra Pradesh,Anantagiri,18.89,83.83,193,22743
Andhra Pradesh,Anantagiripalli,18.00,78.75,1755,27102
Andhra Pradesh,Anantagiripalli,17.81,78.53,1860,36155
Andhra Pradesh,Anantamadugu,14.14,79.72,65,25283
Andhra Pradesh,Anantammāgūda,17.46,78.47,1738,972594
Andhra Pradesh,Anantapalle,16.98,81.44,147,41068
Andhra Pradesh,Anantapalli,18.55,78.80,1227,30523
Andhra Pradesh,Anantapalli,18.55,78.92,1167,33558
Andhra Pradesh,Anantapalli,18.54,79.32,830,37864
Andhra Pradesh,Anantapalli,17.80,78.31,1778,28952
Andhra Pradesh,Anantapet,19.00,78.53,925,13179
Andhra Pradesh,Anantapur,14.68,77.61,1092,115460
Andhra Pradesh,Anantapur,17.11,77.74,1709,34173
Andhra Pradesh,Anantapur,16.78,77.80,1669,31693
Andhra Pradesh,Anantapuram,16.31,78.25,1669,23462
Andhra Pradesh,Anantapuram,18.24,83.55,239,65593
Andhra Pradesh,Anantapuram,17.96,83.05,265,39977
Andhra Pradesh,Anantapuram,14.35,80.13,9,21475
Andhra Pradesh,Anantapuram,14.40,77.30,1686,14356
Andhra Pradesh,Anantapuram,13.95,77.34,2024,37362
Andhra Pradesh,Anantapuram,15.53,77.55,1669,17447
Andhra Pradesh,Anantapuramu,14.68,77.61,1092,115460
Andhra Pradesh,Anantaram,18.31,78.93,1105,24914
Andhra Pradesh,Anantaram,17.51,78.84,1669,40352
Andhra Pradesh,Anantaram,17.03,79.21,892,56137
Andhra Pradesh,Anantaram,17.69,78.39,2073,48115
Andhra Pradesh,Anantaram,16.53,78.50,1669,20340
Andhra Pradesh,Anantaram,18.85,78.98,830,56932
Andhra Pradesh,Anantaram,17.38,82.34,830,31995
Andhra Pradesh,Anantaram,17.68,78.66,1840,28593
Andhra Pradesh,Anantaraopalli,17.89,78.71,1761,40514
Andhra Pradesh,Anantaraopet,17.82,78.34,1843,28070
Andhra Pradesh,Anantarāyadupeta,18.65,83.40,278,56520
Andhra Pradesh,Anantasagaram,17.68,82.46,830,21285
Andhra Pradesh,Anantasagram,14.57,79.41,200,18481
Andhra Pradesh,Anantasāgaram,14.57,79.41,200,18481
Andhra Pradesh,Anantavaram,16.55,80.09,141,40212
Andhra Pradesh,Anantavaram,16.03,80.16,68,69238
Andhra Pradesh,Anantavaram,16.79,80.60,236,33034
Andhra Pradesh,Anantavaram,17.36,81.20,331,11074
Andhra Pradesh,Anantavaram,15.34,80.08,13,26573
Andhra Pradesh,Anantavarappādu,16.23,80.45,45,757347
Andhra Pradesh,Anantavarappālem,15.83,80.27,22,43929
Andhra Pradesh,Anantawaram,17.03,79.65,830,34454
Andhra Pradesh,Ananthapuram,16.18,77.87,971,35082
Andhra Pradesh,Anantsagar,17.69,78.62,1876,33206
Andhra Pradesh,Anantsagar,17.56,77.95,1797,40541
Andhra Pradesh,Anantsagar,18.08,79.46,938,35944
Andhra Pradesh,Anantsāgar,18.00,77.81,1669,42204
Andhra Pradesh,Anantsāgar,17.68,77.76,1952,27065
Andhra Pradesh,Anantsāgar,16.44,78.40,1669,25838
Andhra Pradesh,Anantsāgar,17.98,78.49,1738,32178
Andhra Pradesh,Anantwar,18.01,77.79,1669,42049
Andhra Pradesh,Anantwaram,16.31,78.56,1669,18217
Andhra Pradesh,Anantāpuram,17.85,79.16,1669,27567
Andhra Pradesh,Anantāpuram,14.42,77.92,1082,15812
Andhra Pradesh,Anantāram,17.45,79.42,830,34300
Andhra Pradesh,Anantāram,17.81,79.66,958,40937
Andhra Pradesh,Anantāram,17.97,79.75,938,39176
Andhra Pradesh,Anantāwaram,17.56,79.18,1020,27255
Andhra Pradesh,Anapakayaguda,18.73,83.84,1079,32618
Andhra Pradesh,Anaraba,18.08,82.51,3494,11306
Andhra Pradesh,Anasagaram,16.79,80.27,95,59668
Andhra Pradesh,Anasbadra,18.73,83.25,830,47433
Andhra Pradesh,Anasāgar,18.18,79.00,1138,27686
Andhra Pradesh,Anavaram,18.54,83.43,252,47739
Andhra Pradesh,Anchanūr,18.25,78.46,1669,41939
Andhra Pradesh,Anchapalli,18.46,79.60,830,25079
Andhra Pradesh,Ancharāmi,18.46,79.71,830,18064
Andhra Pradesh,Andakur,19.13,78.09,1164,20870
Andhra Pradesh,Andalamala,14.02,80.12,9,18674
Andhra Pradesh,Andalapalle,17.60,82.99,78,87238
Andhra Pradesh,Andarmadam,13.39,80.30,29,0
Andhra Pradesh,Andarvara,18.15,82.58,3349,13549
Andhra Pradesh,Andelapalli,18.81,79.83,377,11132
Andhra Pradesh,Andeli,19.33,79.52,830,50735
Andhra Pradesh,Andgollapalli,17.91,78.27,1669,27654
Andhra Pradesh,Andgudem,19.49,78.34,1669,14541
Andhra Pradesh,Andhavaram,18.48,83.96,45,59228
Andhra Pradesh,Andhavaram,18.33,83.97,65,102070
Andhra Pradesh,Andibi,18.09,82.74,3513,18748
Andhra Pradesh,Andili,18.65,83.88,830,30347
Andhra Pradesh,Andlagondi,17.74,81.71,1998,2437
Andhra Pradesh,Andol,17.81,78.08,1669,43921
Andhra Pradesh,Andoli,19.46,78.69,1669,15384
Andhra Pradesh,Andradobbi,17.90,82.41,2509,13089
Andhra Pradesh,Andugula,16.76,78.77,1131,19805
Andhra Pradesh,Andugula Tanda,16.78,78.77,1204,19656
Andhra Pradesh,Andugulapalli,18.67,79.40,849,68104
Andhra Pradesh,Andukuru,16.53,80.17,134,47414
Andhra Pradesh,Anemadugu,14.94,80.03,22,63924
Andhra Pradesh,Aneparti,17.13,79.21,971,43624
Andhra Pradesh,Anepuram,17.41,79.84,830,35019
Andhra Pradesh,Angadipeta,16.98,79.03,856,30906
Andhra Pradesh,Angadipeta,16.71,79.08,830,19935
Andhra Pradesh,Angadipeta Tānda,16.71,79.08,830,19646
Andhra Pradesh,Angadpet,17.64,78.07,1669,67980
Andhra Pradesh,Angalakudūru Malepalle,16.25,80.60,45,199180
Andhra Pradesh,Angaligundala Tānda,17.00,78.12,1935,33487
Andhra Pradesh,Angaluru,16.18,79.78,291,21654
Andhra Pradesh,Anganapalli,16.37,77.62,1056,97637
Andhra Pradesh,Anganuti,17.68,78.64,1860,33284
Andhra Pradesh,Angaraipalli,18.81,79.78,403,16042
Andhra Pradesh,Angasakallu,15.47,77.22,1669,18340
Andhra Pradesh,Angol,18.44,77.89,1236,33578
Andhra Pradesh,Angol Tanda,18.45,77.91,1669,33897
Andhra Pradesh,Angripet,17.90,78.37,1669,29367
Andhra Pradesh,Angulūru,17.28,81.67,85,11921
Andhra Pradesh,Anguru,18.75,83.98,134,35553
Andhra Pradesh,Anibagiri,16.29,78.58,1669,16603
Andhra Pradesh,Anicut,18.57,78.12,1669,93776
Andhra Pradesh,Anicut,17.90,82.81,246,37963
Andhra Pradesh,Anigandlapadu,16.89,80.29,150,43747
Andhra Pradesh,Anigeru,17.48,82.05,830,9495
Andhra Pradesh,Anjada,18.36,82.84,3349,14884
Andhra Pradesh,Anjalingi,17.86,82.55,2746,13523
Andhra Pradesh,Anjaneyah Kovil,17.63,82.88,45,53410
Andhra Pradesh,Anjaneyapuram,17.08,80.61,255,43806
Andhra Pradesh,Anjangiri,16.31,78.10,1669,46903
Andhra Pradesh,Anjani,18.29,77.73,1669,27399
Andhra Pradesh,Anji,19.47,78.69,1669,15819
Andhra Pradesh,Anjiligadiguda,18.78,84.00,1181,35377
Andhra Pradesh,Anjupāka,17.86,80.92,219,20375
Andhra Pradesh,Ankaipalli,19.15,79.43,1020,15893
Andhra Pradesh,Ankajosyulapalem,17.96,83.06,324,41287
Andhra Pradesh,Ankalampadu,16.99,81.16,282,29663
Andhra Pradesh,Ankampalem,17.59,82.38,830,16463
Andhra Pradesh,Ankampalem,17.15,81.28,347,40278
Andhra Pradesh,Ankampalle,14.70,77.24,1669,18396
Andhra Pradesh,Ankampalli,18.53,79.44,830,29541
Andhra Pradesh,Ankampalli,17.38,79.00,1095,24679
Andhra Pradesh,Ankampet,18.19,78.75,1669,41083
Andhra Pradesh,Ankampeta,14.88,77.57,1040,20004
Andhra Pradesh,Ankampālem,17.40,82.31,830,28511
Andhra Pradesh,Ankampālem,17.22,81.20,830,15603
Andhra Pradesh,Ankanagudem,18.25,80.62,242,5255
Andhra Pradesh,Ankanagudem,17.30,81.25,830,13748
Andhra Pradesh,Ankanagūdem,17.14,81.43,272,49263
Andhra Pradesh,Ankannagūdem,16.77,81.03,147,35359
Andhra Pradesh,Ankanpalli,17.65,77.90,1706,53079
Andhra Pradesh,Ankanpet,19.14,79.66,830,11634
Andhra Pradesh,Ankapuram,18.77,78.26,1256,83579
Andhra Pradesh,Ankareddipalli,18.32,78.78,1171,39315
Andhra Pradesh,Ankata,19.68,78.56,830,96332
Andhra Pradesh,Ankatpalli,18.89,79.24,830,43152
Andhra Pradesh,Ankavaram,18.77,83.58,314,38389
Andhra Pradesh,Ankena,19.19,78.51,1669,12549
Andhra Pradesh,Ankhora,19.40,79.59,830,13401
Andhra Pradesh,Ankiagūdem,18.30,79.30,941,42725
Andhra Pradesh,Ankilla,16.74,77.76,1669,32066
Andhra Pradesh,Ankireddikuntapālem,15.92,80.21,36,36014
Andhra Pradesh,Ankireddipalli,18.17,79.01,1092,28029
Andhra Pradesh,Ankoli,19.61,78.57,944,41726
Andhra Pradesh,Ankora,19.48,79.78,830,13786
Andhra Pradesh,Ankraddipalli,17.56,78.68,1909,54928
Andhra Pradesh,Ankreddiguda,17.26,78.94,1092,30876
Andhra Pradesh,Ankreddipalli,17.56,78.68,1909,54928
Andhra Pradesh,Ankreddipalli,18.00,78.92,1669,29065
Andhra Pradesh,Ankreddipalli,17.89,78.61,1909,32935
Andhra Pradesh,Ankrāl,17.41,78.76,1669,32458
Andhra Pradesh,Anksapur,19.35,79.40,830,21290
Andhra Pradesh,Anksapuram,18.24,79.49,830,56507
Andhra Pradesh,Anksapuram,18.38,79.63,830,25434
Andhra Pradesh,Ankshahpur,18.84,79.67,830,4615
Andhra Pradesh,Ankshāhpur,17.45,78.73,1669,64672
Andhra Pradesh,Anksāpur,18.58,79.95,830,11429
Andhra Pradesh,Anksāpur,18.34,78.83,1135,47037
Andhra Pradesh,Anksāpur,19.36,79.27,830,29485
Andhra Pradesh,Anksāpur,18.04,79.00,1669,31888
Andhra Pradesh,Anksāpur,18.32,79.66,830,28672
Andhra Pradesh,Anksāpuram,18.82,78.39,1062,52790
Andhra Pradesh,Ankugudam,17.21,78.20,1866,25333
Andhra Pradesh,Ankulpet,18.25,77.98,1669,29625
Andhra Pradesh,Ankusham,19.12,79.44,1000,30341
Andhra Pradesh,Ankushāpuram,17.97,79.16,1669,28898
Andhra Pradesh,Ankusāpuram,18.34,79.49,830,50025
Andhra Pradesh,Ankārampalli,16.46,78.72,1669,17740
Andhra Pradesh,Ankūr,16.44,78.09,1669,37315
Andhra Pradesh,Anmangal,17.59,79.92,830,41944
Andhra Pradesh,Annagaripalem,14.84,80.08,6,23155
Andhra Pradesh,Annambhatlavāripālem,16.03,80.23,45,46547
Andhra Pradesh,Annamnayuduvalasa,18.62,83.44,278,51019
Andhra Pradesh,Annampeta,18.52,83.87,118,28242
Andhra Pradesh,Annampālem,17.61,81.92,1115,3278
Andhra Pradesh,Annamrājupeta,18.02,83.31,121,45850
Andhra Pradesh,Annamrājuvalasa,18.63,83.18,830,36239
Andhra Pradesh,Annapalem,16.47,79.96,282,36242
Andhra Pradesh,Annapanavarigudem,16.98,81.11,226,29857
Andhra Pradesh,Annapareddipalle,17.37,80.78,830,19078
Andhra Pradesh,Annaparru,16.09,80.31,55,39551
Andhra Pradesh,Annappanenivarigudem,16.78,81.00,164,26985
Andhra Pradesh,Annaram,17.37,78.60,1669,129076
Andhra Pradesh,Annaram,18.76,79.84,410,10814
Andhra Pradesh,Annaram,18.91,79.94,351,6916
Andhra Pradesh,Annaram,18.24,78.25,1778,24352
Andhra Pradesh,Annaram,18.40,78.46,1702,23810
Andhra Pradesh,Annaram,19.30,79.32,892,16164
Andhra Pradesh,Annaram,18.41,79.24,994,58837
Andhra Pradesh,Annaram,18.34,79.28,974,40844
Andhra Pradesh,Annaraopeta,16.89,80.76,383,33371
Andhra Pradesh,Annareddipalli,16.86,77.86,1669,28536
Andhra Pradesh,Annareddipalli,18.23,78.17,1669,24833
Andhra Pradesh,Annareddipālem,14.58,80.10,22,27339
Andhra Pradesh,Annasagar,17.84,78.79,1804,27473
Andhra Pradesh,Annasagar,18.24,77.97,1669,29710
Andhra Pradesh,Annasagar,17.23,77.70,1669,17162
Andhra Pradesh,Annasagar,16.90,77.52,1801,19973
Andhra Pradesh,Annasagar,16.94,77.91,1998,29831
Andhra Pradesh,Annasamudram,16.04,79.51,308,20267
Andhra Pradesh,Annavaram,17.28,82.41,78,54453
Andhra Pradesh,Annavaram,17.78,82.19,2828,7320
Andhra Pradesh,Annavaram,17.38,82.09,265,19532
Andhra Pradesh,Annavaram,17.99,82.41,2509,13838
Andhra Pradesh,Annavaram,17.61,82.64,177,70693
Andhra Pradesh,Annavaram,17.84,82.94,121,78608
Andhra Pradesh,Annavaram,16.09,80.27,78,40576
Andhra Pradesh,Annavaram,16.83,80.85,305,86471
Andhra Pradesh,Annavaram,18.59,83.76,137,73044
Andhra Pradesh,Annavaram,17.58,81.32,177,6402
Andhra Pradesh,Annavaram,16.22,79.97,183,71390
Andhra Pradesh,Annavarappādu,16.14,79.93,196,40181
Andhra Pradesh,Annawaram,17.01,79.29,830,71991
Andhra Pradesh,Annawaram,17.38,79.61,1669,31564
Andhra Pradesh,Annawaram,17.62,79.95,830,54222
Andhra Pradesh,Annawaram,17.69,79.70,889,36946
Andhra Pradesh,Annawaram,17.13,79.57,830,85930
Andhra Pradesh,Annayyavalasa,18.77,83.62,830,24444
Andhra Pradesh,Anndevarapeta,17.09,81.58,121,47714
Andhra Pradesh,Anneboinapalli,16.85,78.76,1669,19186
Andhra Pradesh,Annupalle,15.35,77.75,1669,18222
Andhra Pradesh,Annupuram,18.60,83.97,108,37919
Andhra Pradesh,Annājīgudam,17.07,78.52,2086,21984
Andhra Pradesh,Annāmalaichcheri,13.46,80.26,22,98
Andhra Pradesh,Annāram,17.02,78.18,1991,43181
Andhra Pradesh,Annāram,17.63,78.38,1975,109482
Andhra Pradesh,Annāram,18.42,77.82,1236,29367
Andhra Pradesh,Annāram,17.12,77.53,1856,23737
Andhra Pradesh,Annāram,16.27,78.10,1220,28333
Andhra Pradesh,Annāram,16.86,79.23,830,22554
Andhra Pradesh,Annāram,18.98,78.17,1095,22195
Andhra Pradesh,Annāram,18.02,78.14,1669,34600
Andhra Pradesh,Annāram,19.19,79.53,830,14951
Andhra Pradesh,Annāram,17.36,78.52,1669,1746439
Andhra Pradesh,Annāram Kalān,18.26,77.85,1669,32351
Andhra Pradesh,Annārgadda,17.27,78.00,2086,28898
Andhra Pradesh,Annārigūdem,17.23,79.88,830,27525
Andhra Pradesh,Anojīgūda,17.43,78.66,1669,141338
Andhra Pradesh,Anparti,18.94,79.13,830,29130
Andhra Pradesh,Anpur,18.42,78.88,987,53699
Andhra Pradesh,Anredi,17.88,82.75,285,40341
Andhra Pradesh,Ansanpalli,16.92,77.82,1709,29267
Andhra Pradesh,Ansanpalli,18.56,78.32,1669,20347
Andhra Pradesh,Antabongu,18.41,82.46,2509,11772
Andhra Pradesh,Antada,17.70,82.34,830,8220
Andhra Pradesh,Antaigūdam,17.86,78.84,1860,25498
Andhra Pradesh,Antaipalli,17.56,78.58,1971,170066
Andhra Pradesh,Antakapalle,18.44,83.68,98,70709
Andhra Pradesh,Antakpet,18.07,79.22,1167,34033
Andhra Pradesh,Antakāpalle,17.81,83.12,82,39395
Andhra Pradesh,Antalagondi,17.40,81.99,830,10353
Andhra Pradesh,Antammagudam,17.29,78.84,1669,30177
Andhra Pradesh,Antammagudem,17.29,78.84,1669,30177
Andhra Pradesh,Antampalli,16.93,77.97,2070,29276
Andhra Pradesh,Antampalli,18.22,78.41,1679,44103
Andhra Pradesh,Antampet,17.03,78.89,1108,20683
Andhra Pradesh,Antampet,16.77,78.78,1138,19768
Andhra Pradesh,Antappaguda,17.40,78.05,1929,31286
Andhra Pradesh,Antapur,18.44,77.60,1246,29338
Andhra Pradesh,Antaram,17.33,78.03,2086,27949
Andhra Pradesh,Antaram,18.53,77.90,1669,31181
Andhra Pradesh,Antaram,17.70,77.81,1902,25936
Andhra Pradesh,Antaram,17.12,78.15,2509,31991
Andhra Pradesh,Antaram,16.59,78.38,1669,24168
Andhra Pradesh,Antareddiguda,17.21,78.17,1938,24800
Andhra Pradesh,Antareddiguda,17.12,78.22,1994,43752
Andhra Pradesh,Antareddiguda,17.14,78.26,1978,35990
Andhra Pradesh,Antargaon,18.19,77.75,1669,26119
Andhra Pradesh,Antargaon,19.88,78.37,830,14716
Andhra Pradesh,Antargaon,18.77,78.89,944,94732
Andhra Pradesh,Antargaon,18.83,79.43,830,88230
Andhra Pradesh,Antargaon,19.34,79.02,1669,9239
Andhra Pradesh,Antarla,17.86,82.34,3349,8695
Andhra Pradesh,Antarvedi,16.33,81.73,3,27381
Andhra Pradesh,Antarvedidalem,16.42,81.78,3,87315
Andhra Pradesh,Antarvedigudem,17.27,81.29,830,13395
Andhra Pradesh,Antarvedipālem,16.42,81.78,3,87315
Andhra Pradesh,Antawaram,16.69,77.61,1669,36396
Andhra Pradesh,Antayagudem,17.02,79.35,830,40914
Andhra Pradesh,Antharni,19.18,77.92,1669,23215
Andhra Pradesh,Anthredigudam,17.24,78.42,1961,130039
Andhra Pradesh,Antikonda,18.70,83.75,1669,11657
Andhra Pradesh,Antilova,17.97,82.80,2742,25121
Andhra Pradesh,Antimanguda,19.10,83.62,1669,17508
Andhra Pradesh,Antimāmidijorlu Gādampalem,17.70,82.48,400,20194
Andhra Pradesh,Antipeta,18.62,83.37,314,72437
Andhra Pradesh,Antireddigudam,17.24,78.42,1961,130039
Andhra Pradesh,Antivalasa,18.60,83.20,830,37018
Andhra Pradesh,Antivalasa,18.91,83.45,337,24999
Andhra Pradesh,Antivalasa,18.70,83.34,374,56244
Andhra Pradesh,Antivalasa,18.66,83.25,830,47051
Andhra Pradesh,Antlapālem,17.73,82.64,318,49719
Andhra Pradesh,Antlavāra,18.52,83.51,226,45317
Andhra Pradesh,Antriguda,18.30,82.80,3349,14512
Andhra Pradesh,Antuparti,18.36,83.08,3697,12198
Andhra Pradesh,Anturlagūdem,17.19,81.25,347,25492
Andhra Pradesh,Antwaram,17.39,78.74,1669,39560
Andhra Pradesh,Antāpuram,18.53,77.90,1669,31181
Andhra Pradesh,Antāram,16.97,77.87,1853,29772
Andhra Pradesh,Antāram,16.84,78.35,1761,21871
Andhra Pradesh,Antāwāram,16.96,77.50,1886,22730
Andhra Pradesh,Anugapaturu,18.21,83.72,78,43734
Andhra Pradesh,Anugonda,16.36,77.61,997,98041
Andhra Pradesh,Anugonda,15.67,77.90,1020,33193
Andhra Pradesh,Anukulapālem,17.55,82.02,925,7231
Andhra Pradesh,Anumalagudem,16.88,79.86,347,50868
Andhra Pradesh,Anumalgūdem,16.86,81.26,206,32811
Andhra Pradesh,Anumalkudūru,16.48,80.66,32,627354
Andhra Pradesh,Anumampalle,14.33,76.95,1873,33390
Andhra Pradesh,Anumari,17.44,82.31,1689,22575
Andhra Pradesh,Anumarlapudi,16.28,80.60,39,144380
Andhra Pradesh,Anumoluvāripalem,15.69,80.11,62,34873
Andhra Pradesh,Anumpalle,15.00,77.51,1092,23960
Andhra Pradesh,Anumullanka,16.98,80.54,232,37066
Andhra Pradesh,Anumūrupālem,16.26,80.79,65,29123
Andhra Pradesh,Anwaram,17.63,78.38,1975,109482
Andhra Pradesh,Apampalli,16.40,77.66,1023,23617
Andhra Pradesh,Apanapalli,18.14,78.75,1715,40880
Andhra Pradesh,Aparāopeta,18.63,78.94,1204,35511
Andhra Pradesh,Apepalli,19.31,79.34,830,16738
Andhra Pradesh,Apilepalla,14.33,77.05,2011,21020
Andhra Pradesh,Apnapet,18.64,79.39,875,58860
Andhra Pradesh,Appagaripalle,14.14,77.97,1765,21118
Andhra Pradesh,Appaipalle,17.13,77.61,1788,22756
Andhra Pradesh,Appaipalli,16.25,78.58,1669,14548
Andhra Pradesh,Appaipalli,17.86,78.57,1899,34012
Andhra Pradesh,Appajipalli,16.64,78.23,1669,20660
Andhra Pradesh,Appajipalli,17.99,77.95,1669,38720
Andhra Pradesh,Appajipet,17.11,79.17,918,36802
Andhra Pradesh,Appakpalli,16.72,77.56,1669,41063
Andhra Pradesh,Appakuntanaikangudem,19.03,79.02,830,21233
Andhra Pradesh,Appala Agrahāram,18.42,83.79,68,49769
Andhra Pradesh,Appalakunta,13.75,77.48,2509,168880
Andhra Pradesh,Appalammapeta,18.53,83.55,255,48285
Andhra Pradesh,Appalarajugudem,17.14,81.15,285,24086
Andhra Pradesh,Appalarajupeta,17.50,82.55,157,34613
Andhra Pradesh,Appalarajupeta,18.54,83.29,334,41983
Andhra Pradesh,Appalarajupuram,17.90,82.87,219,43150
Andhra Pradesh,Appalnayudupeta,18.54,83.82,134,27447
Andhra Pradesh,Appalrajupeta,17.55,82.25,830,9089
Andhra Pradesh,Appalrajupeta,17.60,82.37,830,13316
Andhra Pradesh,Appalrāopet,17.76,79.81,1026,44276
Andhra Pradesh,Appammapālem,17.77,82.78,295,42779
Andhra Pradesh,Appammapālem,17.70,82.89,203,43650
Andhra Pradesh,Appampalli,16.62,77.71,1669,32906
Andhra Pradesh,Appanapalem,17.77,83.22,101,108326
Andhra Pradesh,Appanapalle,17.12,81.39,226,56309
Andhra Pradesh,Appanapalli,16.78,77.87,1669,29104
Andhra Pradesh,Appanapālem,16.58,80.65,45,464407
Andhra Pradesh,Appanapālem,17.84,83.21,95,67702
Andhra Pradesh,Appandorapalem,17.66,82.65,242,109637
Andhra Pradesh,Appandorapālem,17.68,82.77,830,41624
Andhra Pradesh,Appandorapālem,17.90,83.23,262,42249
Andhra Pradesh,Appandoravalasa,18.80,83.60,337,31288
Andhra Pradesh,Appandoravalasa,18.68,83.73,984,23737
Andhra Pradesh,Appannagūdem,17.23,79.78,830,30259
Andhra Pradesh,Appannapalem,17.49,82.94,45,45624
Andhra Pradesh,Appannapalle,13.85,77.71,2509,31009
Andhra Pradesh,Appannapalli,16.76,78.06,1679,120113
Andhra Pradesh,Appannapeta,16.91,79.75,337,40563
Andhra Pradesh,Appannapālem,17.28,82.10,200,61964
Andhra Pradesh,Appannapālem,17.70,82.53,830,21694
Andhra Pradesh,Appannavalasa,18.35,83.59,351,58740
Andhra Pradesh,Appapuram,16.52,81.18,52,51918
Andhra Pradesh,Appapuram,16.16,80.14,118,69286
Andhra Pradesh,Appapuram,16.02,80.43,19,54157
Andhra Pradesh,Appapuram,18.54,83.74,170,55943
Andhra Pradesh,Apparajucheruvu,14.48,77.80,1082,27755
Andhra Pradesh,Apparaopalem,16.80,81.18,177,25192
Andhra Pradesh,Apparaopet,16.72,81.05,85,81310
Andhra Pradesh,Apparayudupalem,17.53,82.93,42,60032
Andhra Pradesh,Appareddigudam,17.12,78.23,1952,43467
Andhra Pradesh,Appareddipalle,14.45,77.13,1830,18655
Andhra Pradesh,Appareddipalli,16.73,77.57,1669,39734
Andhra Pradesh,Appareddipalli,16.82,77.63,1669,19232
Andhra Pradesh,Apparājupalli,17.72,79.99,830,25537
Andhra Pradesh,Apparāopeta,18.38,83.65,206,52361
Andhra Pradesh,Appaspalli,16.64,77.66,1669,33032
Andhra Pradesh,Appaswāmipalle,13.95,77.93,2509,45931
Andhra Pradesh,Appayepalli,16.89,77.69,1669,31823
Andhra Pradesh,Appayyapeta,18.56,83.36,344,80069
Andhra Pradesh,Appayyapeta,18.68,83.37,311,54393
Andhra Pradesh,Appayyapeta,18.17,83.47,147,67073
Andhra Pradesh,Appayyapālem,17.76,83.14,203,88527
Andhra Pradesh,Appayyavandlapalle,14.14,77.70,1669,19253
Andhra Pradesh,Appecherla,15.08,77.75,961,19944
Andhra Pradesh,Appenahalli,13.79,77.13,2509,73267
Andhra Pradesh,Appikatla,15.97,80.51,26,68796
Andhra Pradesh,Appikatla,16.41,80.92,19,99119
Andhra Pradesh,Appireddipalli,17.65,79.30,1007,26434
Andhra Pradesh,Appojigudem,17.37,78.28,1817,41142
Andhra Pradesh,Appuchetuthadulu,14.19,80.09,9,18251
Andhra Pradesh,Appāipalli,16.37,78.11,1669,59820
Andhra Pradesh,Appāpuram,18.25,83.68,177,44637
Andhra Pradesh,Appāreddiguda,17.32,78.23,1991,27943
Andhra Pradesh,Appāreddiguda,17.09,78.10,2509,31400
Andhra Pradesh,Appāreddipalli,17.41,79.10,1669,23334
Andhra Pradesh,Appārāopeta,16.79,81.39,141,43288
Andhra Pradesh,Appārāopeta,16.63,81.39,6,72242
Andhra Pradesh,Appārāopeta,16.43,81.38,3,44513
Andhra Pradesh,Appārāopeta,16.90,81.57,68,74358
Andhra Pradesh,Aptapalli,18.69,79.87,830,13367
Andhra Pradesh,Apājīpet,18.68,80.22,328,6497
Andhra Pradesh,Arabupalem,17.65,82.98,52,150072
Andhra Pradesh,Aradagudem,18.20,82.54,4189,12665
Andhra Pradesh,Aradala,18.62,83.72,170,73828
Andhra Pradesh,Aragada,17.68,81.66,2053,2384
Andhra Pradesh,Aragudem,19.27,79.54,830,14378
Andhra Pradesh,Arakallu,15.66,77.37,1669,50084
Andhra Pradesh,Arakativemula,14.85,77.91,875,20342
Andhra Pradesh,Araku,18.34,82.84,3349,15355
Andhra Pradesh,Arakālgūdem,18.27,79.37,925,51381
Andhra Pradesh,Aralaba,18.24,82.49,3582,12655
Andhra Pradesh,Aralebanda,15.90,77.16,1151,357034
Andhra Pradesh,Aranapalli,18.93,79.10,830,33445
Andhra Pradesh,Arangipeta,18.24,83.79,59,49843
Andhra Pradesh,Arapalli,18.38,78.77,1118,46541
Andhra Pradesh,Arapalli,18.29,78.98,1115,25379
Andhra Pradesh,Arapalli,18.07,79.07,1249,30194
Andhra Pradesh,Arapeta,18.84,78.65,944,89651
Andhra Pradesh,Arasabalaga,18.46,83.59,236,66966
Andhra Pradesh,Arasada,18.66,83.50,232,49692
Andhra Pradesh,Arasalpādu,17.13,80.70,331,26627
Andhra Pradesh,Arasavalli,18.29,83.91,52,192075
Andhra Pradesh,Arasgūdem,17.42,78.52,1669,1913265
Andhra Pradesh,Arasāda,18.54,83.65,190,53106
Andhra Pradesh,Aratla,17.63,78.19,1669,48513
Andhra Pradesh,Aratlakota,17.35,82.58,42,101908
Andhra Pradesh,Aravakuru,14.74,77.46,1249,18419
Andhra Pradesh,Aravapalle,16.18,79.99,180,69535
Andhra Pradesh,Aravapalli,18.10,79.60,908,43176
Andhra Pradesh,Aravelli,18.72,79.03,849,38615
Andhra Pradesh,Ardapuram,17.96,82.75,830,20759
Andhra Pradesh,Ardavidu,15.68,78.96,830,6824
Andhra Pradesh,Arderam,19.17,78.25,1154,15861
Andhra Pradesh,Ardevalasa,18.28,83.59,216,67272
Andhra Pradesh,Ardhānnapālem,17.92,83.20,229,53498
Andhra Pradesh,Ardirai,19.41,79.36,830,13985
Andhra Pradesh,Aredu,16.67,81.47,9,64397
Andhra Pradesh,Aregorīldarti,17.91,78.36,1669,29442
Andhra Pradesh,Areguda,17.10,78.90,1079,19399
Andhra Pradesh,Aregudam,17.56,79.03,1167,32343
Andhra Pradesh,Aregudem,19.40,79.82,830,7152
Andhra Pradesh,Aregudem,17.32,78.95,1072,28356
Andhra Pradesh,Aregura,19.26,79.28,830,9021
Andhra Pradesh,Aregūdem,17.22,79.07,1007,29759
Andhra Pradesh,Aregūdem,17.44,79.25,994,25723
Andhra Pradesh,Aregūdem,16.91,79.15,830,20171
Andhra Pradesh,Arepaka,17.80,83.08,193,31101
Andhra Pradesh,Arepalle,16.25,79.84,331,146586
Andhra Pradesh,Arepalli,18.07,77.91,1669,29667
Andhra Pradesh,Arepalli,18.62,78.15,1669,103793
Andhra Pradesh,Arepalli,18.06,78.14,1669,33840
Andhra Pradesh,Arepalli,18.22,78.35,1765,36614
Andhra Pradesh,Arepalli,18.22,78.62,1669,35222
Andhra Pradesh,Arepalli,18.62,78.96,1151,36147
Andhra Pradesh,Arepalli,18.45,78.91,1013,45395
Andhra Pradesh,Arepalli,17.52,81.21,160,8937
Andhra Pradesh,Arepalli,18.47,79.12,889,194482
Andhra Pradesh,Arepalli,18.38,79.12,905,104841
Andhra Pradesh,Arepalli,18.14,79.20,1135,34612
Andhra Pradesh,Arepalli,18.11,79.06,1177,27803
Andhra Pradesh,Arepalli,19.06,79.02,830,17252
Andhra Pradesh,Arepalli,17.89,78.65,1827,36152
Andhra Pradesh,Arepalli,17.91,78.68,1797,38800
Andhra Pradesh,Arepalli,17.99,78.89,1669,26986
Andhra Pradesh,Aresalavarikhandrika,14.50,80.12,9,55482
Andhra Pradesh,Argonda,18.23,78.28,1853,25795
Andhra Pradesh,Argul,18.74,78.27,1243,71677
Andhra Pradesh,Arigela,19.05,78.17,1099,21184
Andhra Pradesh,Arigipalem,18.04,83.13,209,55212
Andhra Pradesh,Arikatota,18.46,83.31,354,38558
Andhra Pradesh,Arikere,15.40,77.20,1669,18680
Andhra Pradesh,Arikuntla,18.36,79.33,892,42903
Andhra Pradesh,Arinda,18.68,79.81,830,11567
Andhra Pradesh,Arjanagiri Agrahāram,17.91,82.94,255,40434
Andhra Pradesh,Arjanapuram,17.77,82.74,354,42801
Andhra Pradesh,Arjoni,19.60,78.80,1669,14293
Andhra Pradesh,Arjunapatla,18.00,79.00,1669,29355
Andhra Pradesh,Arjunavalasa,18.20,83.62,147,39940
Andhra Pradesh,Arjunwada,17.29,79.10,1000,28828
Andhra Pradesh,Arkalguda,17.59,78.52,2011,114256
Andhra Pradesh,Arkapalli,16.82,78.77,1249,19548
Andhra Pradesh,Arkapur,19.48,78.65,1669,20200
Andhra Pradesh,Arkatvaripalem,15.82,80.14,49,34049
Andhra Pradesh,Arkuya,18.83,83.75,1735,19321
Andhra Pradesh,Arlada,17.78,82.61,830,32173
Andhra Pradesh,Arlagaddadudem,17.13,79.38,830,40752
Andhra Pradesh,Arlagudi,18.36,83.15,2552,24097
Andhra Pradesh,Arlapadu,17.03,80.48,216,40844
Andhra Pradesh,Arlapāda,18.39,82.38,2034,9134
Andhra Pradesh,Arlarputtu,18.40,82.43,2050,11456
Andhra Pradesh,Arle,17.86,83.06,377,42042
Andhra Pradesh,Arledda,18.19,82.67,2903,17403
Andhra Pradesh,Arli,19.62,78.42,1036,17582
Andhra Pradesh,Arli,19.70,78.59,830,72249
Andhra Pradesh,Arli,18.79,83.97,144,31182
Andhra Pradesh,Arli,19.52,79.31,830,9153
Andhra Pradesh,Arli Khurd,19.09,78.11,1122,23478
Andhra Pradesh,Armagon,13.98,80.16,3,13457
Andhra Pradesh,Arnada,18.78,83.62,403,26056
Andhra Pradesh,Arnakonda,18.61,79.16,961,37455
Andhra Pradesh,Arnākonda,18.60,79.12,1003,40474
Andhra Pradesh,Arpanpalli,17.72,79.94,830,29527
Andhra Pradesh,Arpapalli,18.88,78.96,830,28646
Andhra Pradesh,Arpiral,17.51,79.64,1036,37612
Andhra Pradesh,Arpirāl Tānda,17.55,79.65,994,38496
Andhra Pradesh,Arpāpur,19.52,79.56,830,13617
Andhra Pradesh,Arrapalli,18.11,79.50,895,44615
Andhra Pradesh,Arrapalli,18.03,79.62,1003,61343
Andhra Pradesh,Arshanapalli,18.52,79.46,830,28750
Andhra Pradesh,Arsiyaguda,17.19,78.44,2020,27620
Andhra Pradesh,Artamuru,18.21,83.60,85,39480
Andhra Pradesh,Artām,18.82,83.45,830,58935
Andhra Pradesh,Arugolanupeta,16.97,80.86,337,28913
Andhra Pradesh,Arugollu,16.83,81.58,62,113219
Andhra Pradesh,Arulla Agraharam,16.82,81.63,39,73434
Andhra Pradesh,Arumakulapalle,13.87,77.68,2509,30823
Andhra Pradesh,Arundelpet,16.24,80.04,219,131963
Andhra Pradesh,Arunāchalapuram,18.42,80.52,298,4044
Andhra Pradesh,Arur,17.63,77.88,1758,43441
Andhra Pradesh,Arur,17.39,79.09,1017,23865
Andhra Pradesh,Aruthagalapadu,16.53,81.25,49,52137
Andhra Pradesh,Arutla,17.13,78.76,1938,18645
Andhra Pradesh,Arvapalli,17.33,79.51,1669,27612
Andhra Pradesh,Arvapalli,17.91,79.80,892,56244
Andhra Pradesh,Arvapuram,17.46,78.74,1669,57043
Andhra Pradesh,Asadganj,17.67,77.52,2080,36879
Andhra Pradesh,Asafabad,19.36,79.29,830,29582
Andhra Pradesh,Asakapalle,17.77,83.12,154,45048
Andhra Pradesh,Asanagiri,17.54,82.34,1702,19351
Andhra Pradesh,Asanād,18.75,79.75,830,16226
Andhra Pradesh,Asapalli,19.44,78.87,1669,12487
Andhra Pradesh,Asargram,17.50,78.51,1843,462172
Andhra Pradesh,Asbanputtu,18.41,82.47,2719,11785
Andhra Pradesh,Asereddipalli,18.57,78.80,1669,30773
Andhra Pradesh,Ashoknagar,17.95,79.95,830,28508
Andhra Pradesh,Ashoknagar,17.41,78.49,1669,2567166
Andhra Pradesh,Ashratabad,17.63,77.96,1758,62157
Andhra Pradesh,Ashta,18.93,78.02,1089,21097
Andhra Pradesh,Ashwaraopalli,17.81,79.26,1669,28084
Andhra Pradesh,Ashwaraopet,17.24,81.13,830,12291
Andhra Pradesh,Ashwarāopeta,17.24,81.13,830,12291
Andhra Pradesh,Asifabad,19.36,79.29,830,29582
Andhra Pradesh,Asireddipalli,16.81,78.79,1184,18885
Andhra Pradesh,Asnathpalle,17.22,77.65,1669,18640
Andhra Pradesh,Asodapalem,15.88,80.46,19,102620
Andhra Pradesh,Asorada,18.50,82.48,3349,12690
Andhra Pradesh,Aspaka,17.39,81.11,410,10728
Andhra Pradesh,Aspalliguda,17.14,78.12,2509,26777
Andhra Pradesh,Asthepuram,17.21,77.72,1669,17730
Andhra Pradesh,Asurodda,17.84,82.29,3349,7748
Andhra Pradesh,Asurodda,17.83,82.50,3441,14601
Andhra Pradesh,Asvattarayanaroppam,14.03,77.27,2509,32271
Andhra Pradesh,Aswapur,18.04,80.53,830,9135
Andhra Pradesh,Aswāpuram,17.83,80.82,216,25709
Andhra Pradesh,Atamkur,16.34,77.81,961,34909
Andhra Pradesh,Atava,18.00,83.10,223,43045
Andhra Pradesh,Athmakur,14.62,79.63,167,23012
Andhra Pradesh,Atikavanipalem,17.43,82.54,134,50817
Andhra Pradesh,Atkarpalli,19.52,78.35,1669,14449
Andhra Pradesh,Atlapadu,16.89,81.68,39,122805
Andhra Pradesh,Atlapragada,16.97,80.65,288,28950
Andhra Pradesh,Atmakur,16.34,77.81,961,34909
Andhra Pradesh,Atmakur,15.88,78.59,928,32303
Andhra Pradesh,Atmakur,18.07,79.74,951,46866
Andhra Pradesh,Atmakuru,14.65,77.36,1669,14728
Andhra Pradesh,Atmakuru,16.43,80.59,19,84538
Andhra Pradesh,Atmakuru,16.43,79.50,830,30367
Andhra Pradesh,Atmakūr,17.68,77.93,1702,44009
Andhra Pradesh,Atmakūr,18.11,78.04,1669,21958
Andhra Pradesh,Atmakūr,18.77,79.13,915,36305
Andhra Pradesh,Atmākūr,18.75,78.62,1076,52766
Andhra Pradesh,Atrāf-i-Balda,17.98,78.45,1722,36305
Andhra Pradesh,Attaguda,18.28,82.93,3349,16770
Andhra Pradesh,Attali,18.62,83.71,187,72939
Andhra Pradesh,Attalli,17.65,78.49,1909,45955
Andhra Pradesh,Attalurivaripalem,16.37,80.71,45,41187
Andhra Pradesh,Attapeta,18.50,83.95,36,50012
Andhra Pradesh,Attapur,17.37,78.44,1669,2425071
Andhra Pradesh,Attekal,15.49,77.45,1669,22859
Andhra Pradesh,Atteli,17.65,78.49,1909,45955
Andhra Pradesh,Attikalgundu,15.47,77.42,1669,22815
Andhra Pradesh,Attili,16.70,81.60,39,95356
Andhra Pradesh,Attirāladinne,14.99,77.86,830,19424
Andhra Pradesh,Attota,16.29,80.68,62,202408
Andhra Pradesh,Attāda,18.07,83.31,160,43627
Andhra Pradesh,Atugūda,18.26,82.75,3349,14470
Andhra Pradesh,Atukuru,16.96,80.38,183,50971
